[{"iata":"HIR","name":"Honiara International Airport","city":"Honiara","state":"Guadalcanal","country":"SB","lat":-9.4280004501,"lon":160.0549926758,"tz":"Pacific/Guadalcanal"},{"iata":"MUA","name":"Munda Airport","city":"Munda","state":"","country":"SB","lat":-8.3279695511,"lon":157.2630004883,"tz":"Pacific/Guadalcanal"},{"iata":"GZO","name":"Nusatupe Airport","city":"Gizo","state":"","country":"SB","lat":-8.0977802277,"lon":156.863998413,"tz":"Pacific/Guadalcanal"},{"iata":"OPU","name":"Balimo Airport","city":"Balimo","state":"Western Province","country":"PG","lat":-8.0500001907,"lon":142.932998657,"tz":"Pacific/Port_Moresby"},{"iata":"DAU","name":"Daru Airport","city":"Daru","state":"Western Province","country":"PG","lat":-9.0867595673,"lon":143.207992554,"tz":"Pacific/Port_Moresby"},{"iata":"GKA","name":"Goroka Airport","city":"Goronka","state":"Eastern Highlands","country":"PG","lat":-6.0816898346,"lon":145.391998291,"tz":"Pacific/Port_Moresby"},{"iata":"GUR","name":"Gurney Airport","city":"Gurney","state":"Milne Bay","country":"PG","lat":-10.3114995956,"lon":150.333999634,"tz":"Pacific/Port_Moresby"},{"iata":"HKN","name":"Kimbe Airport","city":"Hoskins","state":"West New Britain","country":"PG","lat":-5.4621701241,"lon":150.4049987793,"tz":"Pacific/Port_Moresby"},{"iata":"KRI","name":"Kikori Airport","city":"Kikori","state":"Gulf","country":"PG","lat":-7.4243798256,"lon":144.2500762939,"tz":"Pacific/Port_Moresby"},{"iata":"KVG","name":"Kavieng Airport","city":"Kavieng","state":"New Ireland","country":"PG","lat":-2.5794000626,"lon":150.807998657,"tz":"Pacific/Port_Moresby"},{"iata":"MAG","name":"Madang Airport","city":"Madang","state":"Madang","country":"PG","lat":-5.2070798874,"lon":145.789001465,"tz":"Pacific/Port_Moresby"},{"iata":"HGU","name":"Mount Hagen Kagamuga Airport","city":"Mount Hagen","state":"Western Highlands","country":"PG","lat":-5.826789856,"lon":144.296005249,"tz":"Pacific/Port_Moresby"},{"iata":"MAS","name":"Momote Airport","city":"","state":"Manus","country":"PG","lat":-2.0618898869,"lon":147.4239959717,"tz":"Pacific/Port_Moresby"},{"iata":"MXH","name":"Moro Airport","city":"Moro","state":"Southern Highlands","country":"PG","lat":-6.3633298874,"lon":143.238006592,"tz":"Pacific/Port_Moresby"},{"iata":"MIS","name":"Misima Island Airport","city":"Misima Island","state":"Milne Bay","country":"PG","lat":-10.6892004013,"lon":152.837997437,"tz":"Pacific/Port_Moresby"},{"iata":"LAE","name":"Lae Nadzab Airport","city":"Nadzab","state":"Morobe","country":"PG","lat":-6.5698299408,"lon":146.725997925,"tz":"Pacific/Port_Moresby"},{"iata":"POM","name":"Port Moresby Jacksons International Airport","city":"Port Moresby","state":"National Capital","country":"PG","lat":-9.4433803558,"lon":147.2200012207,"tz":"Pacific/Port_Moresby"},{"iata":"TBG","name":"Tabubil Airport","city":"Tabubil","state":"Western Province","country":"PG","lat":-5.2786102295,"lon":141.2259979248,"tz":"Pacific/Port_Moresby"},{"iata":"RAB","name":"Tokua Airport","city":"Tokua","state":"East New Britain","country":"PG","lat":-4.3404598236,"lon":152.380004883,"tz":"Pacific/Port_Moresby"},{"iata":"WWK","name":"Wewak International Airport","city":"Wewak","state":"East Sepik","country":"PG","lat":-3.5838301182,"lon":143.669006348,"tz":"Pacific/Port_Moresby"},{"iata":"JEG","name":"Aasiaat Airport","city":"Aasiaat","state":"Qaasuitsup","country":"GL","lat":68.7218017578,"lon":-52.7846984863,"tz":"America/Nuuk"},{"iata":"UAK","name":"Narsarsuaq Airport","city":"Narsarsuaq","state":"Kujalleq","country":"GL","lat":61.1604995728,"lon":-45.4259986877,"tz":"America/Nuuk"},{"iata":"GOH","name":"Godthaab / Nuuk Airport","city":"Nuuk","state":"","country":"GL","lat":64.19090271,"lon":-51.6781005859,"tz":"America/Nuuk"},{"iata":"JAV","name":"Ilulissat Airport","city":"Ilulissat","state":"","country":"GL","lat":69.2432022095,"lon":-51.0570983887,"tz":"America/Nuuk"},{"iata":"KUS","name":"Kulusuk Airport","city":"Kulusuk","state":"Sermersooq","country":"GL","lat":65.573600769,"lon":-37.1236000061,"tz":"America/Nuuk"},{"iata":"SFJ","name":"Kangerlussuaq Airport","city":"Kangerlussuaq","state":"Qeqqata","country":"GL","lat":67.0122218992,"lon":-50.7116031647,"tz":"America/Nuuk"},{"iata":"JQA","name":"Qaarsut Airport","city":"Uummannaq","state":"","country":"GL","lat":70.7341995239,"lon":-52.6962013245,"tz":"America/Nuuk"},{"iata":"AEY","name":"Akureyri Airport","city":"Akureyri","state":"Northeast","country":"IS","lat":65.6600036621,"lon":-18.0727005005,"tz":"Atlantic/Reykjavik"},{"iata":"KEF","name":"Keflavik International Airport","city":"Reykjavik","state":"Southern Peninsula","country":"IS","lat":63.9850006104,"lon":-22.6056003571,"tz":"Atlantic/Reykjavik"},{"iata":"RKV","name":"Reykjavik Airport","city":"Reykjavik","state":"Capital Region","country":"IS","lat":64.1299972534,"lon":-21.9405994415,"tz":"Atlantic/Reykjavik"},{"iata":"PRN","name":"Pristina International Airport","city":"Prishtina","state":"Pristina","country":"KS","lat":42.5727996826,"lon":21.0358009338,"tz":"Europe/Belgrade"},{"iata":"SUR","name":"Summer Beaver Airport","city":"Summer Beaver","state":"Ontario","country":"CA","lat":52.7085990906,"lon":-88.5419006348,"tz":"America/Nipigon"},{"iata":"YAX","name":"Wapekeka Airport","city":"Angling Lake","state":"Ontario","country":"CA","lat":53.8492012024,"lon":-89.5793991089,"tz":"America/Rainy_River"},{"iata":"WNN","name":"Wunnumin Lake Airport","city":"Wunnumin Lake","state":"Ontario","country":"CA","lat":52.893901825,"lon":-89.2891998291,"tz":"America/Rainy_River"},{"iata":"XBE","name":"Bearskin Lake Airport","city":"Bearskin Lake","state":"Ontario","country":"CA","lat":53.9655990601,"lon":-91.0271987915,"tz":"America/Rainy_River"},{"iata":"KIF","name":"Kingfisher Lake Airport","city":"Kingfisher Lake","state":"Ontario","country":"CA","lat":53.0125007629,"lon":-89.8553009033,"tz":"America/Rainy_River"},{"iata":"YAM","name":"Sault Ste Marie Airport","city":"Sault Ste Marie","state":"Ontario","country":"CA","lat":46.4850006104,"lon":-84.5093994141,"tz":"America/Detroit"},{"iata":"XKS","name":"Kasabonika Airport","city":"Kasabonika","state":"Ontario","country":"CA","lat":53.5247001648,"lon":-88.6427993774,"tz":"America/Rainy_River"},{"iata":"YAY","name":"St. Anthony Airport","city":"St. Anthony","state":"Newfoundland and Labrador","country":"CA","lat":51.3918991089,"lon":-56.0830993652,"tz":"America/St_Johns"},{"iata":"YBB","name":"Kugaaruk Airport","city":"Kugaaruk","state":"Nunavut","country":"CA","lat":68.5344009399,"lon":-89.8080978394,"tz":"America/Cambridge_Bay"},{"iata":"YBC","name":"Baie Comeau Airport","city":"Baie-Comeau","state":"Quebec","country":"CA","lat":49.1324996948,"lon":-68.2043991089,"tz":"America/Toronto"},{"iata":"YBL","name":"Campbell River Airport","city":"Campbell River","state":"British Columbia","country":"CA","lat":49.9508018494,"lon":-125.2710037231,"tz":"America/Vancouver"},{"iata":"YBX","name":"Lourdes de Blanc Sablon Airport","city":"Lourdes-De-Blanc-Sablon","state":"Quebec","country":"CA","lat":51.4435997009,"lon":-57.1852989197,"tz":"America/Blanc-Sablon"},{"iata":"YCB","name":"Cambridge Bay Airport","city":"Cambridge Bay","state":"Nunavut","country":"CA","lat":69.1081008911,"lon":-105.138000488,"tz":"America/Cambridge_Bay"},{"iata":"YCC","name":"Cornwall Regional Airport","city":"Cornwall","state":"Quebec","country":"CA","lat":45.0928001404,"lon":-74.5633010864,"tz":"America/Toronto"},{"iata":"YCD","name":"Nanaimo Airport","city":"Nanaimo","state":"British Columbia","country":"CA","lat":49.0522994995,"lon":-123.8700027466,"tz":"America/Vancouver"},{"iata":"XCM","name":"Chatham Kent Airport","city":"Chatham-Kent","state":"Ontario","country":"CA","lat":42.3064002991,"lon":-82.0819015503,"tz":"America/Toronto"},{"iata":"YCO","name":"Kugluktuk Airport","city":"Kugluktuk","state":"Nunavut","country":"CA","lat":67.8167037964,"lon":-115.143997192,"tz":"America/Cambridge_Bay"},{"iata":"YCS","name":"Chesterfield Inlet Airport","city":"Chesterfield Inlet","state":"Nunavut","country":"CA","lat":63.3469009399,"lon":-90.7311019897,"tz":"America/Rankin_Inlet"},{"iata":"YDA","name":"Dawson City Airport","city":"Dawson City","state":"Yukon","country":"CA","lat":64.0430984497,"lon":-139.1280059814,"tz":"America/Dawson"},{"iata":"YDF","name":"Deer Lake Airport","city":"Deer Lake","state":"Newfoundland and Labrador","country":"CA","lat":49.2108001709,"lon":-57.3913993835,"tz":"America/St_Johns"},{"iata":"YDP","name":"Nain Airport","city":"Nain","state":"Newfoundland and Labrador","country":"CA","lat":56.5491981506,"lon":-61.6803016663,"tz":"America/Goose_Bay"},{"iata":"YDQ","name":"Dawson Creek Airport","city":"Dawson Creek","state":"British Columbia","country":"CA","lat":55.7422981262,"lon":-120.1829986572,"tz":"America/Dawson_Creek"},{"iata":"YEG","name":"Edmonton International Airport","city":"Edmonton","state":"Alberta","country":"CA","lat":53.3097000122,"lon":-113.580001831,"tz":"America/Edmonton"},{"iata":"YEK","name":"Arviat Airport","city":"Arviat","state":"Nunavut","country":"CA","lat":61.0942001343,"lon":-94.0708007812,"tz":"America/Rankin_Inlet"},{"iata":"YEV","name":"Inuvik Mike Zubko Airport","city":"Inuvik","state":"Northwest Territories","country":"CA","lat":68.3041992188,"lon":-133.483001709,"tz":"America/Inuvik"},{"iata":"YFB","name":"Iqaluit Airport","city":"Iqaluit","state":"Nunavut","country":"CA","lat":63.756401062,"lon":-68.5558013916,"tz":"America/Iqaluit"},{"iata":"YFC","name":"Fredericton Airport","city":"Fredericton","state":"New Brunswick","country":"CA","lat":45.8689002991,"lon":-66.5372009277,"tz":"America/Moncton"},{"iata":"YFH","name":"Fort Hope Airport","city":"Fort Hope","state":"Ontario","country":"CA","lat":51.5619010925,"lon":-87.9077987671,"tz":"America/Nipigon"},{"iata":"YFO","name":"Flin Flon Airport","city":"Flin Flon","state":"Manitoba","country":"CA","lat":54.6781005859,"lon":-101.6819992065,"tz":"America/Winnipeg"},{"iata":"YMN","name":"Makkovik Airport","city":"Makkovik","state":"Newfoundland and Labrador","country":"CA","lat":55.0769004822,"lon":-59.1864013672,"tz":"America/Goose_Bay"},{"iata":"YGH","name":"Fort Good Hope Airport","city":"Fort Good Hope","state":"Northwest Territories","country":"CA","lat":66.2407989502,"lon":-128.6510009766,"tz":"America/Inuvik"},{"iata":"YGL","name":"La Grande Riviere Airport","city":"La Grande Riviere","state":"Quebec","country":"CA","lat":53.6253013611,"lon":-77.7042007446,"tz":"America/Toronto"},{"iata":"YGO","name":"Gods Lake Narrows Airport","city":"Gods Lake Narrows","state":"Manitoba","country":"CA","lat":54.5588989258,"lon":-94.4914016724,"tz":"America/Winnipeg"},{"iata":"YGR","name":"Iles-de-la-Madeleine Airport","city":"Iles-de-la-Madeleine","state":"Quebec","country":"CA","lat":47.4247016907,"lon":-61.7780990601,"tz":"America/Halifax"},{"iata":"YGT","name":"Igloolik Airport","city":"Igloolik","state":"Nunavut","country":"CA","lat":69.3647003174,"lon":-81.8161010742,"tz":"America/Iqaluit"},{"iata":"YGW","name":"Kuujjuarapik Airport","city":"Kuujjuarapik","state":"Quebec","country":"CA","lat":55.2818984985,"lon":-77.765296936,"tz":"America/Iqaluit"},{"iata":"YHD","name":"Dryden Regional Airport","city":"Dryden","state":"Ontario","country":"CA","lat":49.8316993713,"lon":-92.7442016602,"tz":"America/Rainy_River"},{"iata":"YHK","name":"Gjoa Haven Airport","city":"Gjoa Haven","state":"Nunavut","country":"CA","lat":68.635597229,"lon":-95.8497009277,"tz":"America/Cambridge_Bay"},{"iata":"YHM","name":"John C. Munro Hamilton International Airport","city":"Hamilton","state":"Ontario","country":"CA","lat":43.1735992432,"lon":-79.9349975586,"tz":"America/Toronto"},{"iata":"YHO","name":"Hopedale Airport","city":"Hopedale","state":"Newfoundland and Labrador","country":"CA","lat":55.448299408,"lon":-60.2285995483,"tz":"America/Goose_Bay"},{"iata":"YHR","name":"Chevery Airport","city":"Chevery","state":"Quebec","country":"CA","lat":50.4688987732,"lon":-59.6366996765,"tz":"America/Blanc-Sablon"},{"iata":"YHZ","name":"Halifax / Stanfield International Airport","city":"Halifax","state":"Nova Scotia","country":"CA","lat":44.8807983398,"lon":-63.5085983276,"tz":"America/Halifax"},{"iata":"YIF","name":"St Augustin Airport","city":"St-Augustin","state":"Quebec","country":"CA","lat":51.2117004395,"lon":-58.6582984924,"tz":"America/Blanc-Sablon"},{"iata":"YIO","name":"Pond Inlet Airport","city":"Pond Inlet","state":"Nunavut","country":"CA","lat":72.6832962036,"lon":-77.9666976929,"tz":"America/Iqaluit"},{"iata":"YPJ","name":"Aupaluk Airport","city":"Aupaluk","state":"Quebec","country":"CA","lat":59.2966995239,"lon":-69.5997009277,"tz":"America/Toronto"},{"iata":"YLW","name":"Kelowna Airport","city":"Kelowna","state":"British Columbia","country":"CA","lat":49.9561004639,"lon":-119.3779983521,"tz":"America/Vancouver"},{"iata":"YMM","name":"Fort McMurray Airport","city":"Fort McMurray","state":"Alberta","country":"CA","lat":56.653301239,"lon":-111.222000122,"tz":"America/Edmonton"},{"iata":"YMO","name":"Moosonee Airport","city":"Moosonee","state":"Ontario","country":"CA","lat":51.2910995483,"lon":-80.6078033447,"tz":"America/Nipigon"},{"iata":"YMT","name":"Chapais Airport","city":"Chibougamau","state":"Quebec","country":"CA","lat":49.771900177,"lon":-74.5280990601,"tz":"America/Toronto"},{"iata":"YMX","name":"Montreal International (Mirabel) Airport","city":"Montreal","state":"Quebec","country":"CA","lat":45.6795005798,"lon":-74.0386962891,"tz":"America/Toronto"},{"iata":"YNA","name":"Natashquan Airport","city":"Natashquan","state":"Quebec","country":"CA","lat":50.1899986267,"lon":-61.7891998291,"tz":"America/Toronto"},{"iata":"YOC","name":"Old Crow Airport","city":"Old Crow","state":"Yukon","country":"CA","lat":67.570602417,"lon":-139.8390045166,"tz":"America/Dawson"},{"iata":"YOO","name":"Oshawa Airport","city":"Oshawa","state":"Ontario","country":"CA","lat":43.9227981567,"lon":-78.8949966431,"tz":"America/Toronto"},{"iata":"YOW","name":"Ottawa Macdonald-Cartier International Airport","city":"Ottawa","state":"Ontario","country":"CA","lat":45.3224983215,"lon":-75.6691970825,"tz":"America/Toronto"},{"iata":"YPH","name":"Inukjuak Airport","city":"Inukjuak","state":"Quebec","country":"CA","lat":58.4719009399,"lon":-78.0768966675,"tz":"America/Toronto"},{"iata":"YPL","name":"Pickle Lake Airport","city":"Pickle Lake","state":"Ontario","country":"CA","lat":51.4463996887,"lon":-90.2142028809,"tz":"America/Atikokan"},{"iata":"YPM","name":"Pikangikum Airport","city":"Pikangikum","state":"Ontario","country":"CA","lat":51.8196983337,"lon":-93.9732971191,"tz":"America/Rainy_River"},{"iata":"YPX","name":"Puvirnituq Airport","city":"Puvirnituq","state":"Quebec","country":"CA","lat":60.0505981445,"lon":-77.2869033813,"tz":"America/Toronto"},{"iata":"YQB","name":"Quebec Jean Lesage International Airport","city":"Quebec","state":"Quebec","country":"CA","lat":46.7910995483,"lon":-71.3933029175,"tz":"America/Toronto"},{"iata":"YQK","name":"Kenora Airport","city":"Kenora","state":"Ontario","country":"CA","lat":49.7882995605,"lon":-94.3630981445,"tz":"America/Rainy_River"},{"iata":"YQM","name":"Greater Moncton International Airport","city":"Moncton","state":"New Brunswick","country":"CA","lat":46.1122016907,"lon":-64.6785964966,"tz":"America/Moncton"},{"iata":"YQQ","name":"Comox Airport","city":"Comox","state":"British Columbia","country":"CA","lat":49.7108001709,"lon":-124.8870010376,"tz":"America/Vancouver"},{"iata":"YQR","name":"Regina International Airport","city":"Regina","state":"Saskatchewan","country":"CA","lat":50.4319000244,"lon":-104.6660003662,"tz":"America/Regina"},{"iata":"YQT","name":"Thunder Bay Airport","city":"Thunder Bay","state":"Ontario","country":"CA","lat":48.3718986511,"lon":-89.3238983154,"tz":"America/Thunder_Bay"},{"iata":"YQX","name":"Gander International Airport","city":"Gander","state":"Newfoundland and Labrador","country":"CA","lat":48.9369010925,"lon":-54.5680999756,"tz":"America/St_Johns"},{"iata":"YQY","name":"Sydney / J.A. Douglas McCurdy Airport","city":"Sydney","state":"Nova Scotia","country":"CA","lat":46.1613998413,"lon":-60.0477981567,"tz":"America/Glace_Bay"},{"iata":"YRB","name":"Resolute Bay Airport","city":"Resolute Bay","state":"Nunavut","country":"CA","lat":74.7169036865,"lon":-94.9693984985,"tz":"America/Resolute"},{"iata":"YRL","name":"Red Lake Airport","city":"Red Lake","state":"Ontario","country":"CA","lat":51.0668983459,"lon":-93.7930984497,"tz":"America/Rainy_River"},{"iata":"YRT","name":"Rankin Inlet Airport","city":"Rankin Inlet","state":"Nunavut","country":"CA","lat":62.8114013672,"lon":-92.1157989502,"tz":"America/Rankin_Inlet"},{"iata":"YSB","name":"Sudbury Airport","city":"Sudbury","state":"Ontario","country":"CA","lat":46.625,"lon":-80.7988967896,"tz":"America/Toronto"},{"iata":"YSJ","name":"Saint John Airport","city":"Saint John","state":"New Brunswick","country":"CA","lat":45.3161010742,"lon":-65.890296936,"tz":"America/Moncton"},{"iata":"YTE","name":"Cape Dorset Airport","city":"Cape Dorset","state":"Nunavut","country":"CA","lat":64.2300033569,"lon":-76.5267028809,"tz":"America/Iqaluit"},{"iata":"YTH","name":"Thompson Airport","city":"Thompson","state":"Manitoba","country":"CA","lat":55.8011016846,"lon":-97.8641967773,"tz":"America/Winnipeg"},{"iata":"YTL","name":"Big Trout Lake Airport","city":"Big Trout Lake","state":"Ontario","country":"CA","lat":53.8177986145,"lon":-89.8968963623,"tz":"America/Rainy_River"},{"iata":"YTS","name":"Timmins/Victor M. Power","city":"Timmins","state":"Ontario","country":"CA","lat":48.5696983337,"lon":-81.376701355,"tz":"America/Toronto"},{"iata":"YTZ","name":"Billy Bishop Toronto City Centre Airport","city":"Toronto","state":"Ontario","country":"CA","lat":43.6274986267,"lon":-79.3962020874,"tz":"America/Toronto"},{"iata":"YUL","name":"Montreal / Pierre Elliott Trudeau International Airport","city":"Montreal","state":"Quebec","country":"CA","lat":45.4706001282,"lon":-73.7407989502,"tz":"America/Toronto"},{"iata":"YUT","name":"Repulse Bay Airport","city":"Repulse Bay","state":"Nunavut","country":"CA","lat":66.5214004517,"lon":-86.2247009277,"tz":"America/Rankin_Inlet"},{"iata":"YUY","name":"Rouyn Noranda Airport","city":"Rouyn-Noranda","state":"Quebec","country":"CA","lat":48.2061004639,"lon":-78.8356018066,"tz":"America/Toronto"},{"iata":"YVB","name":"Bonaventure Airport","city":"Bonaventure","state":"Quebec","country":"CA","lat":48.0710983276,"lon":-65.4602966309,"tz":"America/Toronto"},{"iata":"YVO","name":"Val-d'Or Airport","city":"Val-d'Or","state":"Quebec","country":"CA","lat":48.0532989502,"lon":-77.7827987671,"tz":"America/Toronto"},{"iata":"YVP","name":"Kuujjuaq Airport","city":"Kuujjuaq","state":"Quebec","country":"CA","lat":58.0960998535,"lon":-68.426902771,"tz":"America/Toronto"},{"iata":"YVQ","name":"Norman Wells Airport","city":"Norman Wells","state":"Northwest Territories","country":"CA","lat":65.2816009521,"lon":-126.797996521,"tz":"America/Inuvik"},{"iata":"YVR","name":"Vancouver International Airport","city":"Vancouver","state":"British Columbia","country":"CA","lat":49.193901062,"lon":-123.1839981079,"tz":"America/Vancouver"},{"iata":"YVZ","name":"Deer Lake Airport","city":"Deer Lake","state":"Ontario","country":"CA","lat":52.6557998657,"lon":-94.0614013672,"tz":"America/Rainy_River"},{"iata":"YWG","name":"Winnipeg / James Armstrong Richardson International Airport","city":"Winnipeg","state":"Manitoba","country":"CA","lat":49.9099998474,"lon":-97.2398986816,"tz":"America/Winnipeg"},{"iata":"YWK","name":"Wabush Airport","city":"Wabush","state":"Newfoundland-and-Labrador","country":"CA","lat":52.9219017029,"lon":-66.864402771,"tz":"America/Goose_Bay"},{"iata":"YWP","name":"Webequie Airport","city":"Webequie","state":"Ontario","country":"CA","lat":52.9593933975,"lon":-87.3748683929,"tz":"America/Nipigon"},{"iata":"YXC","name":"Cranbrook Airport","city":"Cranbrook","state":"British-Columbia","country":"CA","lat":49.6108016968,"lon":-115.7819976807,"tz":"America/Edmonton"},{"iata":"YXE","name":"Saskatoon John G. Diefenbaker International Airport","city":"Saskatoon","state":"Saskatchewan","country":"CA","lat":52.1707992554,"lon":-106.6999969482,"tz":"America/Regina"},{"iata":"YXJ","name":"Fort St John Airport","city":"Fort St.John","state":"British-Columbia","country":"CA","lat":56.2380981445,"lon":-120.7399978638,"tz":"America/Dawson_Creek"},{"iata":"YXL","name":"Sioux Lookout Airport","city":"Sioux Lookout","state":"Ontario","country":"CA","lat":50.113899231,"lon":-91.9052963257,"tz":"America/Rainy_River"},{"iata":"YXN","name":"Whale Cove Airport","city":"Whale Cove","state":"Nunavut","country":"CA","lat":62.2400016785,"lon":-92.5980987549,"tz":"America/Rankin_Inlet"},{"iata":"YXS","name":"Prince George Airport","city":"Prince George","state":"British-Columbia","country":"CA","lat":53.8894004822,"lon":-122.6790008545,"tz":"America/Vancouver"},{"iata":"YXT","name":"Terrace Airport","city":"Terrace","state":"British-Columbia","country":"CA","lat":54.46849823,"lon":-128.5760040283,"tz":"America/Vancouver"},{"iata":"YXU","name":"London Airport","city":"London","state":"Ontario","country":"CA","lat":43.0355987549,"lon":-81.1539001465,"tz":"America/Toronto"},{"iata":"YXX","name":"Abbotsford Airport","city":"Abbotsford","state":"British-Columbia","country":"CA","lat":49.0252990723,"lon":-122.361000061,"tz":"America/Los_Angeles"},{"iata":"YXY","name":"Whitehorse / Erik Nielsen International Airport","city":"Whitehorse","state":"Yukon","country":"CA","lat":60.7095985413,"lon":-135.067001343,"tz":"America/Whitehorse"},{"iata":"YYB","name":"North Bay Airport","city":"North Bay","state":"Ontario","country":"CA","lat":46.3636016846,"lon":-79.4227981567,"tz":"America/Toronto"},{"iata":"YYC","name":"Calgary International Airport","city":"Calgary","state":"Alberta","country":"CA","lat":51.113899231,"lon":-114.0199966431,"tz":"America/Edmonton"},{"iata":"YYD","name":"Smithers Airport","city":"Smithers","state":"British-Columbia","country":"CA","lat":54.8246994019,"lon":-127.1829986572,"tz":"America/Vancouver"},{"iata":"YYG","name":"Charlottetown Airport","city":"Charlottetown","state":"Newfoundland-and-Labrador","country":"CA","lat":46.2900009155,"lon":-63.1211013794,"tz":"America/Halifax"},{"iata":"YYH","name":"Taloyoak Airport","city":"Taloyoak","state":"Nunavut","country":"CA","lat":69.5466995239,"lon":-93.5766983032,"tz":"America/Cambridge_Bay"},{"iata":"YYJ","name":"Victoria International Airport","city":"Victoria","state":"British-Columbia","country":"CA","lat":48.646900177,"lon":-123.4260025024,"tz":"America/Vancouver"},{"iata":"YYQ","name":"Churchill Airport","city":"Churchill","state":"Manitoba","country":"CA","lat":58.739200592,"lon":-94.0650024414,"tz":"America/Winnipeg"},{"iata":"YYR","name":"Goose Bay Airport","city":"Goose Bay","state":"Newfoundland-and-Labrador","country":"CA","lat":53.3191986084,"lon":-60.4258003235,"tz":"America/Goose_Bay"},{"iata":"YYT","name":"St. John's International Airport","city":"St. John's","state":"Newfoundland-and-Labrador","country":"CA","lat":47.618598938,"lon":-52.7518997192,"tz":"America/St_Johns"},{"iata":"YYY","name":"Mont Joli Airport","city":"Mont-Joli","state":"Quebec","country":"CA","lat":48.6086006165,"lon":-68.2080993652,"tz":"America/Toronto"},{"iata":"YYZ","name":"Lester B. Pearson International Airport","city":"Toronto","state":"Ontario","country":"CA","lat":43.6772003174,"lon":-79.6305999756,"tz":"America/Toronto"},{"iata":"YZF","name":"Yellowknife Airport","city":"Yellowknife","state":"Northwest-Territories","country":"CA","lat":62.4627990723,"lon":-114.4400024414,"tz":"America/Yellowknife"},{"iata":"YZG","name":"Salluit Airport","city":"Salluit","state":"Quebec","country":"CA","lat":62.1794013977,"lon":-75.6671981812,"tz":"America/Toronto"},{"iata":"YZS","name":"Coral Harbour Airport","city":"Coral Harbour","state":"Nunavut","country":"CA","lat":64.1932983398,"lon":-83.3593978882,"tz":"America/Atikokan"},{"iata":"YZV","name":"Sept-Iles Airport","city":"Sept-Iles","state":"Quebec","country":"CA","lat":50.2233009338,"lon":-66.2656021118,"tz":"America/Toronto"},{"iata":"ZBF","name":"Bathurst Airport","city":"Bathurst","state":"New-Brunswick","country":"CA","lat":47.629699707,"lon":-65.738899231,"tz":"America/Moncton"},{"iata":"ZGI","name":"Gods River Airport","city":"Gods River","state":"Manitoba","country":"CA","lat":54.8396987915,"lon":-94.0785980225,"tz":"America/Winnipeg"},{"iata":"MSA","name":"Muskrat Dam Airport","city":"Muskrat Dam","state":"Ontario","country":"CA","lat":53.4413986206,"lon":-91.762802124,"tz":"America/Rainy_River"},{"iata":"ZPB","name":"Sachigo Lake Airport","city":"Sachigo Lake","state":"Ontario","country":"CA","lat":53.8911018372,"lon":-92.1964035034,"tz":"America/Rainy_River"},{"iata":"ZRJ","name":"Round Lake (Weagamow Lake) Airport","city":"Round Lake","state":"Ontario","country":"CA","lat":52.9435997009,"lon":-91.3127975464,"tz":"America/Rainy_River"},{"iata":"ZSJ","name":"Sandy Lake Airport","city":"Sandy Lake","state":"Ontario","country":"CA","lat":53.064201355,"lon":-93.3443984985,"tz":"America/Rainy_River"},{"iata":"ZTM","name":"Shamattawa Airport","city":"Shamattawa","state":"Manitoba","country":"CA","lat":55.8656005859,"lon":-92.0813980103,"tz":"America/Winnipeg"},{"iata":"BJA","name":"Soummam Airport","city":"Bejaia","state":"Bejaia","country":"DZ","lat":36.7120018005,"lon":5.069920063,"tz":"Africa/Algiers"},{"iata":"ALG","name":"Houari Boumediene Airport","city":"Algiers","state":"Algiers","country":"DZ","lat":36.6910018921,"lon":3.2154099941,"tz":"Africa/Algiers"},{"iata":"DJG","name":"Djanet Inedbirene Airport","city":"Djanet","state":"Illizi","country":"DZ","lat":24.2928009033,"lon":9.4524402618,"tz":"Africa/Algiers"},{"iata":"QSF","name":"Ain Arnat Airport","city":"Setif","state":"Setif","country":"DZ","lat":36.1781005859,"lon":5.3244900703,"tz":"Africa/Algiers"},{"iata":"TMR","name":"Aguenar – Hadj Bey Akhamok Airport","city":"Tamanrasset","state":"Tamanrasset","country":"DZ","lat":22.8115005493,"lon":5.4510798454,"tz":"Africa/Algiers"},{"iata":"AAE","name":"Annaba Airport","city":"Annabah","state":"Annaba","country":"DZ","lat":36.8222007751,"lon":7.8091697693,"tz":"Africa/Algiers"},{"iata":"CZL","name":"Mohamed Boudiaf International Airport","city":"Constantine","state":"Constantine","country":"DZ","lat":36.2760009766,"lon":6.6203899384,"tz":"Africa/Algiers"},{"iata":"BLJ","name":"Batna Airport","city":"Batna","state":"Batna","country":"DZ","lat":35.7521018982,"lon":6.3085899353,"tz":"Africa/Algiers"},{"iata":"TLM","name":"Zenata – Messali El Hadj Airport","city":"Tlemcen","state":"Tlemcen","country":"DZ","lat":35.0167007446,"lon":-1.4500000477,"tz":"Africa/Algiers"},{"iata":"ORN","name":"Es Senia Airport","city":"Oran","state":"Oran","country":"DZ","lat":35.6239013672,"lon":-0.6211829782,"tz":"Africa/Algiers"},{"iata":"CBH","name":"Bechar Boudghene Ben Ali Lotfi Airport","city":"Bechar","state":"Bechar","country":"DZ","lat":31.6457004547,"lon":-2.2698600292,"tz":"Africa/Algiers"},{"iata":"BSK","name":"Biskra Airport","city":"Biskra","state":"Biskra","country":"DZ","lat":34.7933006287,"lon":5.7382302284,"tz":"Africa/Algiers"},{"iata":"GHA","name":"Noumerat - Moufdi Zakaria Airport","city":"Ghardaia","state":"Ghardaia","country":"DZ","lat":32.3841018677,"lon":3.7941100597,"tz":"Africa/Algiers"},{"iata":"HME","name":"Oued Irara Airport","city":"Hassi Messaoud","state":"Ouargla","country":"DZ","lat":31.6730003357,"lon":6.1404399872,"tz":"Africa/Algiers"},{"iata":"INZ","name":"In Salah Airport","city":"In Salah","state":"Tamanrasset","country":"DZ","lat":27.2509994507,"lon":2.5120201111,"tz":"Africa/Algiers"},{"iata":"ELU","name":"Guemar Airport","city":"Guemar","state":"El-Oued","country":"DZ","lat":33.5113983154,"lon":6.7767901421,"tz":"Africa/Algiers"},{"iata":"TMX","name":"Timimoun Airport","city":"Timimoun","state":"Adrar","country":"DZ","lat":29.2371006012,"lon":0.2760330141,"tz":"Africa/Algiers"},{"iata":"OGX","name":"Ain el Beida Airport","city":"Ouargla","state":"Ouargla","country":"DZ","lat":31.9172000885,"lon":5.412779808,"tz":"Africa/Algiers"},{"iata":"IAM","name":"In Amenas Airport","city":"Amenas","state":"Illizi","country":"DZ","lat":28.0515003204,"lon":9.6429100037,"tz":"Africa/Algiers"},{"iata":"COO","name":"Cadjehoun Airport","city":"Cotonou","state":"Atlantique","country":"BJ","lat":6.3572301865,"lon":2.3843500614,"tz":"Africa/Porto-Novo"},{"iata":"OUA","name":"Ouagadougou Airport","city":"Ouagadougou","state":"","country":"BF","lat":12.3531999588,"lon":-1.5124200583,"tz":"Africa/Ouagadougou"},{"iata":"ACC","name":"Kotoka International Airport","city":"Accra","state":"","country":"GH","lat":5.6051898003,"lon":-0.1667860001,"tz":"Africa/Accra"},{"iata":"ABJ","name":"Port Bouet Airport","city":"Abidjan","state":"Lagunes","country":"CI","lat":5.2613902092,"lon":-3.9262900352,"tz":"Africa/Abidjan"},{"iata":"ABV","name":"Nnamdi Azikiwe International Airport","city":"Abuja","state":"FCT","country":"NG","lat":9.0067901611,"lon":7.2631697655,"tz":"Africa/Lagos"},{"iata":"KAN","name":"Mallam Aminu International Airport","city":"Kano","state":"Kano","country":"NG","lat":12.0475997925,"lon":8.5246200562,"tz":"Africa/Lagos"},{"iata":"LOS","name":"Murtala Muhammed International Airport","city":"Lagos","state":"Lagos","country":"NG","lat":6.5773701668,"lon":3.321160078,"tz":"Africa/Lagos"},{"iata":"PHC","name":"Port Harcourt International Airport","city":"Port Harcourt","state":"Rivers","country":"NG","lat":5.0154900551,"lon":6.9495902061,"tz":"Africa/Lagos"},{"iata":"NIM","name":"Diori Hamani International Airport","city":"Niamey","state":"Niamey","country":"NE","lat":13.4814996719,"lon":2.1836099625,"tz":"Africa/Niamey"},{"iata":"MIR","name":"Monastir Habib Bourguiba International Airport","city":"Monastir","state":"Al-Munastir","country":"TN","lat":35.7580986023,"lon":10.754699707,"tz":"Africa/Tunis"},{"iata":"TUN","name":"Tunis Carthage International Airport","city":"Tunis","state":"Tunis","country":"TN","lat":36.8510017395,"lon":10.2271995544,"tz":"Africa/Tunis"},{"iata":"GAF","name":"Gafsa Ksar International Airport","city":"Gafsa","state":"Gafsa","country":"TN","lat":34.422000885,"lon":8.8225002289,"tz":"Africa/Tunis"},{"iata":"DJE","name":"Djerba Zarzis International Airport","city":"Djerba","state":"Madanin","country":"TN","lat":33.875,"lon":10.7755002975,"tz":"Africa/Tunis"},{"iata":"SFA","name":"Sfax Thyna International Airport","city":"Sfax","state":"Safaqis","country":"TN","lat":34.7179985046,"lon":10.6909999847,"tz":"Africa/Tunis"},{"iata":"TOE","name":"Tozeur Nefta International Airport","city":"Tozeur","state":"Tawzar","country":"TN","lat":33.9397010803,"lon":8.1105604172,"tz":"Africa/Tunis"},{"iata":"ANR","name":"Antwerp International Airport (Deurne)","city":"Antwerp","state":"Flanders","country":"BE","lat":51.1893997192,"lon":4.4602799416,"tz":"Europe/Brussels"},{"iata":"BRU","name":"Brussels Airport","city":"Brussels","state":"Flanders","country":"BE","lat":50.9014015198,"lon":4.4844398499,"tz":"Europe/Brussels"},{"iata":"OST","name":"Ostend-Bruges International Airport","city":"Ostend","state":"Flanders","country":"BE","lat":51.1988983154,"lon":2.8622200489,"tz":"Europe/Brussels"},{"iata":"HDF","name":"Heringsdorf Airport","city":"Heringsdorf","state":"Mecklenburg-Vorpommern","country":"DE","lat":53.8787002563,"lon":14.152299881,"tz":"Europe/Berlin"},{"iata":"DRS","name":"Dresden Airport","city":"Dresden","state":"Saxony","country":"DE","lat":51.1328010559,"lon":13.76720047,"tz":"Europe/Berlin"},{"iata":"ERF","name":"Erfurt Airport","city":"Erfurt","state":"Thuringia","country":"DE","lat":50.979801178,"lon":10.9581003189,"tz":"Europe/Berlin"},{"iata":"FRA","name":"Frankfurt am Main International Airport","city":"Frankfurt-am-Main","state":"Hesse","country":"DE","lat":50.0264015198,"lon":8.543129921,"tz":"Europe/Berlin"},{"iata":"FMO","name":"Munster Osnabruck Airport","city":"Munster","state":"North-Rhine-Westphalia","country":"DE","lat":52.134601593,"lon":7.6848301888,"tz":"Europe/Berlin"},{"iata":"HAM","name":"Hamburg Airport","city":"Hamburg","state":"Hamburg","country":"DE","lat":53.6304016113,"lon":9.9882297516,"tz":"Europe/Berlin"},{"iata":"THF","name":"Berlin Tempelhof Airport","city":"Berlin","state":"Berlin","country":"DE","lat":52.473611,"lon":13.401667,"tz":"Europe/Berlin"},{"iata":"CGN","name":"Cologne Bonn Airport","city":"Cologne","state":"North-Rhine-Westphalia","country":"DE","lat":50.8658981323,"lon":7.1427397728,"tz":"Europe/Berlin"},{"iata":"DUS","name":"Dusseldorf International Airport","city":"Dusseldorf","state":"North-Rhine-Westphalia","country":"DE","lat":51.2895011902,"lon":6.7667798996,"tz":"Europe/Berlin"},{"iata":"MUC","name":"Munich International Airport","city":"Munich","state":"Bavaria","country":"DE","lat":48.3538017273,"lon":11.7861003876,"tz":"Europe/Berlin"},{"iata":"NUE","name":"Nuremberg Airport","city":"Nuremberg","state":"Bavaria","country":"DE","lat":49.4986991882,"lon":11.0669002533,"tz":"Europe/Berlin"},{"iata":"SCN","name":"Saarbrucken Airport","city":"Saarbrucken","state":"Saarland","country":"DE","lat":49.2145996094,"lon":7.1095099449,"tz":"Europe/Berlin"},{"iata":"STR","name":"Stuttgart Airport","city":"Stuttgart","state":"Baden-Wuerttemberg","country":"DE","lat":48.6898994446,"lon":9.2219600677,"tz":"Europe/Berlin"},{"iata":"TXL","name":"Berlin-Tegel International Airport","city":"Berlin","state":"Berlin","country":"DE","lat":52.5597000122,"lon":13.2876996994,"tz":"Europe/Berlin"},{"iata":"HAJ","name":"Hannover Airport","city":"Hannover","state":"Lower-Saxony","country":"DE","lat":52.461101532,"lon":9.6850795746,"tz":"Europe/Berlin"},{"iata":"BRE","name":"Bremen Airport","city":"Bremen","state":"Bremen","country":"DE","lat":53.0475006104,"lon":8.7866697311,"tz":"Europe/Berlin"},{"iata":"HHN","name":"Frankfurt-Hahn Airport","city":"Hahn","state":"Rheinland-Pfalz","country":"DE","lat":49.9486999512,"lon":7.2638897896,"tz":"Europe/Berlin"},{"iata":"MHG","name":"Mannheim-City Airport","city":"Mannheim","state":"Baden-Wuerttemberg","country":"DE","lat":49.4730567932,"lon":8.514166832,"tz":"Europe/Berlin"},{"iata":"LBC","name":"Lubeck Blankensee Airport","city":"Lubeck","state":"Schleswig-Holstein","country":"DE","lat":53.8054008484,"lon":10.7192001343,"tz":"Europe/Berlin"},{"iata":"FMM","name":"Memmingen Allgau Airport","city":"Memmingen","state":"Bavaria","country":"DE","lat":47.9888000488,"lon":10.2395000458,"tz":"Europe/Berlin"},{"iata":"BNJ","name":"Bonn-Hangelar Airport","city":"Bonn","state":"North-Rhine-Westphalia","country":"DE","lat":50.7688903809,"lon":7.1633329391,"tz":"Europe/Berlin"},{"iata":"ESS","name":"Essen Mulheim Airport","city":"","state":"North-Rhine-Westphalia","country":"DE","lat":51.4023017883,"lon":6.9373297691,"tz":"Europe/Berlin"},{"iata":"BFE","name":"Bielefeld Airport","city":"Bielefeld","state":"North-Rhine-Westphalia","country":"DE","lat":51.9647216797,"lon":8.5444440842,"tz":"Europe/Berlin"},{"iata":"PAD","name":"Paderborn Lippstadt Airport","city":"Paderborn","state":"North-Rhine-Westphalia","country":"DE","lat":51.6141014099,"lon":8.6163196564,"tz":"Europe/Berlin"},{"iata":"NRN","name":"Niederrhein Airport","city":"Weeze","state":"North-Rhine-Westphalia","country":"DE","lat":51.6024017334,"lon":6.1421699524,"tz":"Europe/Amsterdam"},{"iata":"DTM","name":"Dortmund Airport","city":"Dortmund","state":"North-Rhine-Westphalia","country":"DE","lat":51.5182991028,"lon":7.6122398377,"tz":"Europe/Berlin"},{"iata":"FDH","name":"Friedrichshafen Airport","city":"Friedrichshafen","state":"Baden-Wuerttemberg","country":"DE","lat":47.6712989807,"lon":9.5114898682,"tz":"Europe/Berlin"},{"iata":"ZQW","name":"Zweibrucken Airport","city":"Zweibrucken","state":"Rheinland-Pfalz","country":"DE","lat":49.209400177,"lon":7.4005599022,"tz":"Europe/Berlin"},{"iata":"FKB","name":"Karlsruhe Baden-Baden Airport","city":"Baden-Baden","state":"Baden-Wuerttemberg","country":"DE","lat":48.7793998718,"lon":8.0804996491,"tz":"Europe/Berlin"},{"iata":"HGL","name":"Helgoland-Dune Airport","city":"Helgoland","state":"Schleswig-Holstein","country":"DE","lat":54.1852798462,"lon":7.9158329964,"tz":"Europe/Berlin"},{"iata":"GWT","name":"Westerland Sylt Airport","city":"Westerland","state":"Schleswig-Holstein","country":"DE","lat":54.9132003784,"lon":8.340470314,"tz":"Europe/Berlin"},{"iata":"TLL","name":"Tallinn Airport","city":"Tallinn","state":"Harjumaa","country":"EE","lat":59.4132995605,"lon":24.8327999115,"tz":"Europe/Tallinn"},{"iata":"HEL","name":"Helsinki Vantaa Airport","city":"Helsinki","state":"Uusimaa","country":"FI","lat":60.317199707,"lon":24.963300705,"tz":"Europe/Helsinki"},{"iata":"KAJ","name":"Kajaani Airport","city":"Kajaani","state":"Kainuu","country":"FI","lat":64.2854995728,"lon":27.6923999786,"tz":"Europe/Helsinki"},{"iata":"KAO","name":"Kuusamo Airport","city":"Kuusamo","state":"Northern-Ostrobothnia","country":"FI","lat":65.9876022339,"lon":29.2394008636,"tz":"Europe/Helsinki"},{"iata":"KTT","name":"Kittila Airport","city":"Kittila","state":"Lapland","country":"FI","lat":67.7009963989,"lon":24.8467998505,"tz":"Europe/Helsinki"},{"iata":"OUL","name":"Oulu Airport","city":"Oulu / Oulunsalo","state":"Northern-Ostrobothnia","country":"FI","lat":64.9300994873,"lon":25.3546009064,"tz":"Europe/Helsinki"},{"iata":"POR","name":"Pori Airport","city":"Pori","state":"Satakunta","country":"FI","lat":61.4617004395,"lon":21.7999992371,"tz":"Europe/Helsinki"},{"iata":"RVN","name":"Rovaniemi Airport","city":"Rovaniemi","state":"Lapland","country":"FI","lat":66.5647964478,"lon":25.8304004669,"tz":"Europe/Helsinki"},{"iata":"SJY","name":"Seinajoki Airport","city":"Seinajoki / Ilmajoki","state":"Southern-Ostrobothnia","country":"FI","lat":62.6921005249,"lon":22.8323001862,"tz":"Europe/Helsinki"},{"iata":"TMP","name":"Tampere-Pirkkala Airport","city":"Tampere / Pirkkala","state":"Pirkanmaa","country":"FI","lat":61.414100647,"lon":23.6044006348,"tz":"Europe/Helsinki"},{"iata":"TKU","name":"Turku Airport","city":"Turku","state":"Finland-Proper","country":"FI","lat":60.5140991211,"lon":22.2628002167,"tz":"Europe/Helsinki"},{"iata":"BFS","name":"Belfast International Airport","city":"Belfast","state":"Northern-Ireland","country":"GB","lat":54.6575012207,"lon":-6.2158298492,"tz":"Europe/London"},{"iata":"BHD","name":"George Best Belfast City Airport","city":"Belfast","state":"Northern-Ireland","country":"GB","lat":54.6180992126,"lon":-5.8724999428,"tz":"Europe/London"},{"iata":"LDY","name":"City of Derry Airport","city":"Derry","state":"Northern-Ireland","country":"GB","lat":55.0428009033,"lon":-7.1611099243,"tz":"Europe/London"},{"iata":"BHX","name":"Birmingham International Airport","city":"Birmingham","state":"England","country":"GB","lat":52.4538993835,"lon":-1.7480299473,"tz":"Europe/London"},{"iata":"GLO","name":"Gloucestershire Airport","city":"Staverton","state":"England","country":"GB","lat":51.8941993713,"lon":-2.1672201157,"tz":"Europe/London"},{"iata":"ORM","name":"Sywell Aerodrome","city":"Northampton","state":"England","country":"GB","lat":52.3053016663,"lon":-0.7930560112,"tz":"Europe/London"},{"iata":"NQT","name":"Nottingham Airport","city":"Nottingham","state":"England","country":"GB","lat":52.9199981689,"lon":-1.0791699886,"tz":"Europe/London"},{"iata":"MAN","name":"Manchester Airport","city":"Manchester","state":"England","country":"GB","lat":53.3536987305,"lon":-2.2749500275,"tz":"Europe/London"},{"iata":"DSA","name":"Robin Hood Doncaster Sheffield Airport","city":"Doncaster","state":"England","country":"GB","lat":53.4805378105,"lon":-1.0106563568,"tz":"Europe/London"},{"iata":"DGX","name":"MOD St. Athan","city":"St. Athan","state":"Wales","country":"GB","lat":51.404800415,"lon":-3.4357500076,"tz":"Europe/London"},{"iata":"CAL","name":"Campbeltown Airport","city":"Campbeltown","state":"Scotland","country":"GB","lat":55.4371986389,"lon":-5.6863899231,"tz":"Europe/London"},{"iata":"FIE","name":"Fair Isle Airport","city":"Fair Isle","state":"Scotland","country":"GB","lat":59.5358009338,"lon":-1.6280599833,"tz":"Europe/London"},{"iata":"WHS","name":"Whalsay Airport","city":"Whalsay","state":"Scotland","country":"GB","lat":60.3774986267,"lon":-0.925556004,"tz":"Europe/London"},{"iata":"NRL","name":"North Ronaldsay Airport","city":"North Ronaldsay","state":"Scotland","country":"GB","lat":59.3675003052,"lon":-2.4344398975,"tz":"Europe/London"},{"iata":"OBN","name":"Oban Airport","city":"North Connel","state":"Scotland","country":"GB","lat":56.4635009766,"lon":-5.3996701241,"tz":"Europe/London"},{"iata":"SOY","name":"Stronsay Airport","city":"Stronsay","state":"Scotland","country":"GB","lat":59.1553001404,"lon":-2.6413900852,"tz":"Europe/London"},{"iata":"LWK","name":"Lerwick / Tingwall Airport","city":"Lerwick","state":"Scotland","country":"GB","lat":60.192199707,"lon":-1.2436100245,"tz":"Europe/London"},{"iata":"WRY","name":"Westray Airport","city":"Westray","state":"Scotland","country":"GB","lat":59.3502998352,"lon":-2.9500000477,"tz":"Europe/London"},{"iata":"HAW","name":"Haverfordwest Airport","city":"Haverfordwest","state":"Wales","country":"GB","lat":51.8330993652,"lon":-4.9611101151,"tz":"Europe/London"},{"iata":"CWL","name":"Cardiff International Airport","city":"Cardiff","state":"Wales","country":"GB","lat":51.3967018127,"lon":-3.3433299065,"tz":"Europe/London"},{"iata":"SWS","name":"Swansea Airport","city":"Swansea","state":"Wales","country":"GB","lat":51.6053009033,"lon":-4.0678300858,"tz":"Europe/London"},{"iata":"BRS","name":"Bristol International Airport","city":"Bristol","state":"England","country":"GB","lat":51.3827018738,"lon":-2.7190899849,"tz":"Europe/London"},{"iata":"LPL","name":"Liverpool John Lennon Airport","city":"Liverpool","state":"England","country":"GB","lat":53.3335990906,"lon":-2.8497200012,"tz":"Europe/London"},{"iata":"LTN","name":"London Luton Airport","city":"London","state":"England","country":"GB","lat":51.8746986389,"lon":-0.3683330119,"tz":"Europe/London"},{"iata":"LEQ","name":"Land's End Airport","city":"Land's End","state":"England","country":"GB","lat":50.1027984619,"lon":-5.6705598831,"tz":"Europe/London"},{"iata":"PLH","name":"Plymouth City Airport","city":"Plymouth","state":"England","country":"GB","lat":50.4227981567,"lon":-4.1058301926,"tz":"Europe/London"},{"iata":"BOH","name":"Bournemouth Airport","city":"Bournemouth","state":"England","country":"GB","lat":50.7799987793,"lon":-1.8424999714,"tz":"Europe/London"},{"iata":"SOU","name":"Southampton Airport","city":"Southampton","state":"England","country":"GB","lat":50.9502983093,"lon":-1.3567999601,"tz":"Europe/London"},{"iata":"NQY","name":"Newquay Cornwall Airport","city":"Newquay","state":"England","country":"GB","lat":50.4406013489,"lon":-4.9954099655,"tz":"Europe/London"},{"iata":"BQH","name":"London Biggin Hill Airport","city":"London","state":"England","country":"GB","lat":51.3307991028,"lon":0.0324999988,"tz":"Europe/London"},{"iata":"LGW","name":"London Gatwick Airport","city":"London","state":"England","country":"GB","lat":51.1481018066,"lon":-0.1902779937,"tz":"Europe/London"},{"iata":"KRH","name":"Redhill Aerodrome","city":"Redhill","state":"England","country":"GB","lat":51.2136001587,"lon":-0.1386110038,"tz":"Europe/London"},{"iata":"LCY","name":"London City Airport","city":"London","state":"England","country":"GB","lat":51.5052986145,"lon":0.0552779995,"tz":"Europe/London"},{"iata":"FAB","name":"Farnborough Airport","city":"Farnborough","state":"England","country":"GB","lat":51.2757987976,"lon":-0.7763329744,"tz":"Europe/London"},{"iata":"LHR","name":"London Heathrow Airport","city":"London","state":"England","country":"GB","lat":51.4706001282,"lon":-0.4619410038,"tz":"Europe/London"},{"iata":"SEN","name":"Southend Airport","city":"Southend","state":"England","country":"GB","lat":51.5713996887,"lon":0.695555985,"tz":"Europe/London"},{"iata":"LYX","name":"Lydd Airport","city":"Lydd","state":"England","country":"GB","lat":50.9561004639,"lon":0.9391670227,"tz":"Europe/London"},{"iata":"MSE","name":"Kent International Airport","city":"Manston","state":"England","country":"GB","lat":51.3422012329,"lon":1.3461099863,"tz":"Europe/London"},{"iata":"CAX","name":"Carlisle Airport","city":"Carlisle","state":"England","country":"GB","lat":54.9375,"lon":-2.8091700077,"tz":"Europe/London"},{"iata":"BLK","name":"Blackpool International Airport","city":"Blackpool","state":"England","country":"GB","lat":53.7717018127,"lon":-3.0286099911,"tz":"Europe/London"},{"iata":"HUY","name":"Humberside Airport","city":"Grimsby","state":"England","country":"GB","lat":53.5744018555,"lon":-0.3508329988,"tz":"Europe/London"},{"iata":"BWF","name":"Barrow Walney Island Airport","city":"Barrow-in-Furness","state":"England","country":"GB","lat":54.1311988831,"lon":-3.2636699677,"tz":"Europe/London"},{"iata":"LBA","name":"Leeds Bradford Airport","city":"Leeds","state":"England","country":"GB","lat":53.8658981323,"lon":-1.6605700254,"tz":"Europe/London"},{"iata":"NCL","name":"Newcastle Airport","city":"Newcastle","state":"England","country":"GB","lat":55.0374984741,"lon":-1.6916699409,"tz":"Europe/London"},{"iata":"MME","name":"Durham Tees Valley Airport","city":"Durham","state":"England","country":"GB","lat":54.5092010498,"lon":-1.4294099808,"tz":"Europe/London"},{"iata":"EMA","name":"East Midlands Airport","city":"Nottingham","state":"England","country":"GB","lat":52.8311004639,"lon":-1.3280600309,"tz":"Europe/London"},{"iata":"HLY","name":"Anglesey Airport","city":"Angelsey","state":"Wales","country":"GB","lat":53.2481002808,"lon":-4.5353398323,"tz":"Europe/London"},{"iata":"KOI","name":"Kirkwall Airport","city":"Orkney Islands","state":"Scotland","country":"GB","lat":58.9578018188,"lon":-2.9049999714,"tz":"Europe/London"},{"iata":"LSI","name":"Sumburgh Airport","city":"Lerwick","state":"Scotland","country":"GB","lat":59.8788986206,"lon":-1.2955600023,"tz":"Europe/London"},{"iata":"WIC","name":"Wick Airport","city":"Wick","state":"Scotland","country":"GB","lat":58.4589004517,"lon":-3.0930600166,"tz":"Europe/London"},{"iata":"ABZ","name":"Aberdeen Dyce Airport","city":"Aberdeen","state":"Scotland","country":"GB","lat":57.2019004822,"lon":-2.1977798939,"tz":"Europe/London"},{"iata":"INV","name":"Inverness Airport","city":"Inverness","state":"Scotland","country":"GB","lat":57.5424995422,"lon":-4.0475001335,"tz":"Europe/London"},{"iata":"GLA","name":"Glasgow International Airport","city":"Glasgow","state":"Scotland","country":"GB","lat":55.8718986511,"lon":-4.4330601692,"tz":"Europe/London"},{"iata":"EDI","name":"Edinburgh Airport","city":"Edinburgh","state":"Scotland","country":"GB","lat":55.9500007629,"lon":-3.3724999428,"tz":"Europe/London"},{"iata":"ILY","name":"Islay Airport","city":"Port Ellen","state":"Scotland","country":"GB","lat":55.6819000244,"lon":-6.2566699982,"tz":"Europe/London"},{"iata":"PIK","name":"Glasgow Prestwick Airport","city":"Glasgow","state":"Scotland","country":"GB","lat":55.5093994141,"lon":-4.5866699219,"tz":"Europe/London"},{"iata":"DND","name":"Dundee Airport","city":"Dundee","state":"Scotland","country":"GB","lat":56.4524993896,"lon":-3.0258300304,"tz":"Europe/London"},{"iata":"SYY","name":"Stornoway Airport","city":"Stornoway","state":"Scotland","country":"GB","lat":58.2155990601,"lon":-6.3311100006,"tz":"Europe/London"},{"iata":"BRR","name":"Barra Airport","city":"Eoligarry","state":"Scotland","country":"GB","lat":57.0228004456,"lon":-7.4430599213,"tz":"Europe/London"},{"iata":"CBG","name":"Cambridge Airport","city":"Cambridge","state":"England","country":"GB","lat":52.2050018311,"lon":0.174999997,"tz":"Europe/London"},{"iata":"NWI","name":"Norwich International Airport","city":"Norwich","state":"England","country":"GB","lat":52.6758003235,"lon":1.2827800512,"tz":"Europe/London"},{"iata":"STN","name":"London Stansted Airport","city":"London","state":"England","country":"GB","lat":51.8849983215,"lon":0.2349999994,"tz":"Europe/London"},{"iata":"EXT","name":"Exeter International Airport","city":"Exeter","state":"England","country":"GB","lat":50.7344017029,"lon":-3.4138898849,"tz":"Europe/London"},{"iata":"FZO","name":"Bristol Filton Airport","city":"Bristol","state":"England","country":"GB","lat":51.5194015503,"lon":-2.5908300877,"tz":"Europe/London"},{"iata":"OXF","name":"Oxford (Kidlington) Airport","city":"Kidlington","state":"England","country":"GB","lat":51.8368988037,"lon":-1.3200000525,"tz":"Europe/London"},{"iata":"WXF","name":"Wethersfield Airport","city":"Wethersfield","state":"England","country":"GB","lat":51.9719009399,"lon":0.5094439983,"tz":"Europe/London"},{"iata":"MPN","name":"Mount Pleasant Airport","city":"Mount Pleasant","state":"Tierra-del-Fuego","country":"FK","lat":-51.8227996826,"lon":-58.4472007751,"tz":"Atlantic/Stanley"},{"iata":"AMS","name":"Amsterdam Airport Schiphol","city":"Amsterdam","state":"North-Holland","country":"NL","lat":52.3086013794,"lon":4.7638897896,"tz":"Europe/Amsterdam"},{"iata":"MST","name":"Maastricht Aachen Airport","city":"Maastricht","state":"Limburg","country":"NL","lat":50.9117012024,"lon":5.7701401711,"tz":"Europe/Amsterdam"},{"iata":"EIN","name":"Eindhoven Airport","city":"Eindhoven","state":"North-Brabant","country":"NL","lat":51.4500999451,"lon":5.3745298386,"tz":"Europe/Amsterdam"},{"iata":"RTM","name":"Rotterdam Airport","city":"Rotterdam","state":"South-Holland","country":"NL","lat":51.9569015503,"lon":4.4372200966,"tz":"Europe/Amsterdam"},{"iata":"ORK","name":"Cork Airport","city":"Cork","state":"Munster","country":"IE","lat":51.8413009644,"lon":-8.491109848,"tz":"Europe/Dublin"},{"iata":"GWY","name":"Galway Airport","city":"Galway","state":"Connaught","country":"IE","lat":53.300201416,"lon":-8.9415903091,"tz":"Europe/Dublin"},{"iata":"DUB","name":"Dublin Airport","city":"Dublin","state":"Leinster","country":"IE","lat":53.4212989807,"lon":-6.270070076,"tz":"Europe/Dublin"},{"iata":"NOC","name":"Ireland West Knock Airport","city":"Charleston","state":"Connaught","country":"IE","lat":53.9103012085,"lon":-8.8184900284,"tz":"Europe/Dublin"},{"iata":"KIR","name":"Kerry Airport","city":"Killarney","state":"Munster","country":"IE","lat":52.1809005737,"lon":-9.5237798691,"tz":"Europe/Dublin"},{"iata":"SNN","name":"Shannon Airport","city":"Shannon","state":"Munster","country":"IE","lat":52.7019996643,"lon":-8.9248199463,"tz":"Europe/Dublin"},{"iata":"WAT","name":"Waterford Airport","city":"Waterford","state":"Munster","country":"IE","lat":52.1871986389,"lon":-7.0869598389,"tz":"Europe/Dublin"},{"iata":"AAR","name":"Aarhus Airport","city":"Aarhus","state":"Central-Jutland","country":"DK","lat":56.2999992371,"lon":10.6190004349,"tz":"Europe/Copenhagen"},{"iata":"BLL","name":"Billund Airport","city":"Billund","state":"South-Denmark","country":"DK","lat":55.7402992249,"lon":9.1517801285,"tz":"Europe/Copenhagen"},{"iata":"CPH","name":"Copenhagen Kastrup Airport","city":"Copenhagen","state":"Capital-Region","country":"DK","lat":55.6179008484,"lon":12.6560001373,"tz":"Europe/Copenhagen"},{"iata":"FAE","name":"Vagar Airport","city":"Vagar","state":"Vagar","country":"FO","lat":62.0635986328,"lon":-7.2772197723,"tz":"Atlantic/Faroe"},{"iata":"AAL","name":"Aalborg Airport","city":"Aalborg","state":"North-Denmark","country":"DK","lat":57.0927589138,"lon":9.8492431641,"tz":"Europe/Copenhagen"},{"iata":"LUX","name":"Luxembourg-Findel International Airport","city":"Luxembourg","state":"Luxembourg","country":"LU","lat":49.6265983582,"lon":6.211520195,"tz":"Europe/Luxembourg"},{"iata":"AES","name":"Alesund Airport","city":"Alesund","state":"More-og-Romsdal","country":"NO","lat":62.5625,"lon":6.119699955,"tz":"Europe/Oslo"},{"iata":"ANX","name":"Andoya Airport","city":"Andenes","state":"Nordland","country":"NO","lat":69.2925033569,"lon":16.1441993713,"tz":"Europe/Oslo"},{"iata":"ALF","name":"Alta Airport","city":"Alta","state":"Finnmark","country":"NO","lat":69.9760971069,"lon":23.3717002869,"tz":"Europe/Oslo"},{"iata":"FDE","name":"Bringeland Airport","city":"Forde","state":"Sogn-og-Fjordane","country":"NO","lat":61.3911018372,"lon":5.756939888,"tz":"Europe/Oslo"},{"iata":"BNN","name":"Bronnoysund Airport","city":"Bronnoy","state":"Nordland","country":"NO","lat":65.4610977173,"lon":12.217499733,"tz":"Europe/Oslo"},{"iata":"BOO","name":"Bodo Airport","city":"Bodo","state":"Nordland","country":"NO","lat":67.269203186,"lon":14.3653001785,"tz":"Europe/Oslo"},{"iata":"BGO","name":"Bergen Airport Flesland","city":"Bergen","state":"Hordaland","country":"NO","lat":60.2933998108,"lon":5.2181401253,"tz":"Europe/Oslo"},{"iata":"BJF","name":"Batsfjord Airport","city":"Batsfjord","state":"Finnmark","country":"NO","lat":70.6005020142,"lon":29.691400528,"tz":"Europe/Oslo"},{"iata":"BVG","name":"Berlevag Airport","city":"Berlevag","state":"Finnmark","country":"NO","lat":70.8713989258,"lon":29.0342006683,"tz":"Europe/Oslo"},{"iata":"KRS","name":"Kristiansand Airport","city":"Kjevik","state":"Vest-Agder","country":"NO","lat":58.2042007446,"lon":8.0853700638,"tz":"Europe/Oslo"},{"iata":"EVE","name":"Harstad/Narvik Airport Evenes","city":"Evenes","state":"Nordland","country":"NO","lat":68.4913024902,"lon":16.6781005859,"tz":"Europe/Oslo"},{"iata":"OSL","name":"Oslo Gardermoen Airport","city":"Oslo","state":"Akershus","country":"NO","lat":60.193901062,"lon":11.100399971,"tz":"Europe/Oslo"},{"iata":"HAU","name":"Haugesund Airport","city":"Karmoy","state":"Rogaland","country":"NO","lat":59.3452987671,"lon":5.2083601952,"tz":"Europe/Oslo"},{"iata":"HFT","name":"Hammerfest Airport","city":"Hammerfest","state":"Finnmark","country":"NO","lat":70.6797027588,"lon":23.6686000824,"tz":"Europe/Oslo"},{"iata":"HVG","name":"Valan Airport","city":"Honningsvag","state":"Finnmark","country":"NO","lat":71.0096969604,"lon":25.9836006165,"tz":"Europe/Oslo"},{"iata":"KSU","name":"Kristiansund Airport Kvernberget","city":"Kvernberget","state":"More-og-Romsdal","country":"NO","lat":63.1118011475,"lon":7.8245201111,"tz":"Europe/Oslo"},{"iata":"KKN","name":"Kirkenes Airport Hoybuktmoen","city":"Kirkenes","state":"Finnmark","country":"NO","lat":69.7257995605,"lon":29.8913002014,"tz":"Europe/Oslo"},{"iata":"MEH","name":"Mehamn Airport","city":"Mehamn","state":"Finnmark","country":"NO","lat":71.0297012329,"lon":27.8267002106,"tz":"Europe/Oslo"},{"iata":"MOL","name":"Molde Airport","city":"Aro","state":"More-og-Romsdal","country":"NO","lat":62.7447013855,"lon":7.2624998093,"tz":"Europe/Oslo"},{"iata":"MJF","name":"Mosjoen Airport Kjaerstad","city":"","state":"Nordland","country":"NO","lat":65.783996582,"lon":13.2149000168,"tz":"Europe/Oslo"},{"iata":"OSY","name":"Namsos Hoknesora Airport","city":"Namsos","state":"Nord-Trondelag","country":"NO","lat":64.4721984863,"lon":11.5785999298,"tz":"Europe/Oslo"},{"iata":"HOV","name":"Orsta-Volda Airport Hovden","city":"Orsta","state":"More-og-Romsdal","country":"NO","lat":62.1800003052,"lon":6.0741000175,"tz":"Europe/Oslo"},{"iata":"MQN","name":"Mo i Rana Airport Rossvoll","city":"Mo i Rana","state":"Nordland","country":"NO","lat":66.363899231,"lon":14.3014001846,"tz":"Europe/Oslo"},{"iata":"RVK","name":"Rorvik Airport Ryum","city":"Rorvik","state":"Nord-Trondelag","country":"NO","lat":64.8383026123,"lon":11.1461000443,"tz":"Europe/Oslo"},{"iata":"RYG","name":"Moss Airport Rygge","city":"Rygge","state":"Ostfold","country":"NO","lat":59.3788986206,"lon":10.7855997086,"tz":"Europe/Oslo"},{"iata":"SDN","name":"Sandane Airport Anda","city":"Sandane","state":"Sogn-og-Fjordane","country":"NO","lat":61.8300018311,"lon":6.1058301926,"tz":"Europe/Oslo"},{"iata":"SOG","name":"Sogndal Airport","city":"Sogndal","state":"Sogn-og-Fjordane","country":"NO","lat":61.1561012268,"lon":7.1377801895,"tz":"Europe/Oslo"},{"iata":"SVJ","name":"Svolvaer Helle Airport","city":"Svolvaer","state":"Nordland","country":"NO","lat":68.2433013916,"lon":14.6691999435,"tz":"Europe/Oslo"},{"iata":"SKN","name":"Stokmarknes Skagen Airport","city":"Hadsel","state":"Nordland","country":"NO","lat":68.5788269043,"lon":15.033416748,"tz":"Europe/Oslo"},{"iata":"SKE","name":"Skien Airport","city":"Geiteryggen","state":"Telemark","country":"NO","lat":59.1850013733,"lon":9.5669403076,"tz":"Europe/Oslo"},{"iata":"SOJ","name":"Sorkjosen Airport","city":"Sorkjosen","state":"Troms","country":"NO","lat":69.7867965698,"lon":20.959400177,"tz":"Europe/Oslo"},{"iata":"VAW","name":"Vardo Airport Svartnes","city":"Vardo","state":"Finnmark","country":"NO","lat":70.3554000854,"lon":31.0449008942,"tz":"Europe/Oslo"},{"iata":"SSJ","name":"Sandnessjoen Airport Stokka","city":"Alstahaug","state":"Nordland","country":"NO","lat":65.9568023682,"lon":12.4688997269,"tz":"Europe/Oslo"},{"iata":"TOS","name":"Tromso Airport","city":"Tromso","state":"Troms","country":"NO","lat":69.6832962036,"lon":18.9188995361,"tz":"Europe/Oslo"},{"iata":"TRF","name":"Sandefjord Airport Torp","city":"Torp","state":"Vestfold","country":"NO","lat":59.1866989136,"lon":10.258600235,"tz":"Europe/Oslo"},{"iata":"TRD","name":"Trondheim Airport Vaernes","city":"Trondheim","state":"Nord-Trondelag","country":"NO","lat":63.4578018188,"lon":10.9239997864,"tz":"Europe/Oslo"},{"iata":"VDS","name":"Vadso Airport","city":"Vadso","state":"Finnmark","country":"NO","lat":70.0652999878,"lon":29.8446998596,"tz":"Europe/Oslo"},{"iata":"SVG","name":"Stavanger Airport Sola","city":"Stavanger","state":"Rogaland","country":"NO","lat":58.876701355,"lon":5.6377801895,"tz":"Europe/Oslo"},{"iata":"BZG","name":"Bydgoszcz Ignacy Jan Paderewski Airport","city":"Bydgoszcz","state":"Kujawsko-Pomorskie","country":"PL","lat":53.0968017578,"lon":17.9776992798,"tz":"Europe/Warsaw"},{"iata":"GDN","name":"Gdansk Lech Walesa Airport","city":"Gdansk","state":"Pomerania","country":"PL","lat":54.3776016235,"lon":18.4661998749,"tz":"Europe/Warsaw"},{"iata":"KRK","name":"John Paul II International Airport Krakow-Balice Airport","city":"Krakow","state":"Lesser-Poland-Voivodeship","country":"PL","lat":50.0777015686,"lon":19.7847995758,"tz":"Europe/Warsaw"},{"iata":"KTW","name":"Katowice International Airport","city":"Katowice","state":"Silesia","country":"PL","lat":50.4743003845,"lon":19.0799999237,"tz":"Europe/Warsaw"},{"iata":"LCJ","name":"Lodz Wladyslaw Reymont Airport","city":"Lodz","state":"Kodz-Voivodeship","country":"PL","lat":51.7219009399,"lon":19.3980998993,"tz":"Europe/Warsaw"},{"iata":"POZ","name":"Poznan-Lawica Airport","city":"Poznan","state":"Greater-Poland","country":"PL","lat":52.4210014343,"lon":16.8262996674,"tz":"Europe/Warsaw"},{"iata":"RZE","name":"Rzeszow-Jasionka Airport","city":"Rzeszow","state":"Subcarpathian-Voivodeship","country":"PL","lat":50.1100006104,"lon":22.0189990997,"tz":"Europe/Warsaw"},{"iata":"SZZ","name":"Szczecin-Goleniow Solidarnosc Airport","city":"Goleniow","state":"West-Pomerania","country":"PL","lat":53.5847015381,"lon":14.9021997452,"tz":"Europe/Warsaw"},{"iata":"WAW","name":"Warsaw Chopin Airport","city":"Warsaw","state":"Mazovia","country":"PL","lat":52.1656990051,"lon":20.9671001434,"tz":"Europe/Warsaw"},{"iata":"WRO","name":"Copernicus Wroclaw Airport","city":"Wroclaw","state":"Lower-Silesia","country":"PL","lat":51.1026992798,"lon":16.885799408,"tz":"Europe/Warsaw"},{"iata":"GOT","name":"Gothenburg-Landvetter Airport","city":"Gothenburg","state":"Vaestra-Gotaland","country":"SE","lat":57.6627998352,"lon":12.279800415,"tz":"Europe/Stockholm"},{"iata":"JKG","name":"Jonkoping Airport","city":"Jonkoping","state":"Jonkoping","country":"SE","lat":57.757598877,"lon":14.0686998367,"tz":"Europe/Stockholm"},{"iata":"KVB","name":"Skovde Airport","city":"Skovde","state":"Vaestra-Gotaland","country":"SE","lat":58.456401825,"lon":13.972700119,"tz":"Europe/Stockholm"},{"iata":"THN","name":"Trollhattan-Vanersborg Airport","city":"Trollhattan","state":"Vaestra-Gotaland","country":"SE","lat":58.3180999756,"lon":12.345000267,"tz":"Europe/Stockholm"},{"iata":"MXX","name":"Mora Airport","city":"","state":"Dalarna","country":"SE","lat":60.957901001,"lon":14.5114002228,"tz":"Europe/Stockholm"},{"iata":"NYO","name":"Stockholm Skavsta Airport","city":"Stockholm / Nykoping","state":"Sodermanland","country":"SE","lat":58.7886009216,"lon":16.9122009277,"tz":"Europe/Stockholm"},{"iata":"KLR","name":"Kalmar Airport","city":"","state":"Kalmar","country":"SE","lat":56.6855010986,"lon":16.2875995636,"tz":"Europe/Stockholm"},{"iata":"MMX","name":"Malmo Sturup Airport","city":"Malmo","state":"Skane","country":"SE","lat":55.536305364,"lon":13.3761978149,"tz":"Europe/Stockholm"},{"iata":"HAD","name":"Halmstad Airport","city":"Halmstad","state":"Halland","country":"SE","lat":56.6911010742,"lon":12.8201999664,"tz":"Europe/Stockholm"},{"iata":"VXO","name":"Vaxjo Kronoberg Airport","city":"Vaxjo","state":"Kronoberg","country":"SE","lat":56.9291000366,"lon":14.7279996872,"tz":"Europe/Stockholm"},{"iata":"GEV","name":"Gallivare Airport","city":"Gallivare","state":"Norrbotten","country":"SE","lat":67.1324005127,"lon":20.8145999908,"tz":"Europe/Stockholm"},{"iata":"SDL","name":"Sundsvall-Harnosand Airport","city":"Sundsvall/ Harnosand","state":"Vaesternorrland","country":"SE","lat":62.5280990601,"lon":17.4438991547,"tz":"Europe/Stockholm"},{"iata":"KRN","name":"Kiruna Airport","city":"","state":"Norrbotten","country":"SE","lat":67.8219985962,"lon":20.3367996216,"tz":"Europe/Stockholm"},{"iata":"UME","name":"Umea Airport","city":"Umea","state":"Vaesterbotten","country":"SE","lat":63.7918014526,"lon":20.2828006744,"tz":"Europe/Stockholm"},{"iata":"VHM","name":"Vilhelmina Airport","city":"","state":"Vaesterbotten","country":"SE","lat":64.5791015625,"lon":16.8335990906,"tz":"Europe/Stockholm"},{"iata":"SOO","name":"Soderhamn Airport","city":"Soderhamn","state":"Gaevleborg","country":"SE","lat":61.2615013123,"lon":17.0991001129,"tz":"Europe/Stockholm"},{"iata":"OSD","name":"Ostersund Airport","city":"Ostersund","state":"Jaemtland","country":"SE","lat":63.1944007874,"lon":14.5003004074,"tz":"Europe/Stockholm"},{"iata":"ORB","name":"Orebro Airport","city":"Orebro","state":"Oerebro","country":"SE","lat":59.2237014771,"lon":15.0380001068,"tz":"Europe/Stockholm"},{"iata":"KSD","name":"Karlstad Airport","city":"Karlstad","state":"Vaermland","country":"SE","lat":59.4446983337,"lon":13.3374004364,"tz":"Europe/Stockholm"},{"iata":"VST","name":"Stockholm Vasteras Airport","city":"Stockholm / Vasteras","state":"Vaestmanland","country":"SE","lat":59.5894012451,"lon":16.633600235,"tz":"Europe/Stockholm"},{"iata":"LLA","name":"Lulea Airport","city":"Lulea","state":"Norrbotten","country":"SE","lat":65.543800354,"lon":22.1219997406,"tz":"Europe/Stockholm"},{"iata":"ARN","name":"Stockholm-Arlanda Airport","city":"Stockholm","state":"Stockholm","country":"SE","lat":59.6519012451,"lon":17.9186000824,"tz":"Europe/Stockholm"},{"iata":"BMA","name":"Stockholm-Bromma Airport","city":"Stockholm","state":"Stockholm","country":"SE","lat":59.3544006348,"lon":17.9416999817,"tz":"Europe/Stockholm"},{"iata":"BLE","name":"Borlange Airport","city":"","state":"Dalarna","country":"SE","lat":60.422000885,"lon":15.5151996613,"tz":"Europe/Stockholm"},{"iata":"LPI","name":"Linkoping SAAB Airport","city":"Linkoping","state":"Oestergotland","country":"SE","lat":58.4062004089,"lon":15.6805000305,"tz":"Europe/Stockholm"},{"iata":"NRK","name":"Norrkoping Airport","city":"Norrkoping","state":"Oestergotland","country":"SE","lat":58.5862998962,"lon":16.2506008148,"tz":"Europe/Stockholm"},{"iata":"VBY","name":"Visby Airport","city":"Visby","state":"Gotland","country":"SE","lat":57.6627998352,"lon":18.346200943,"tz":"Europe/Stockholm"},{"iata":"AGH","name":"Angelholm-Helsingborg Airport","city":"Angelholm","state":"Skane","country":"SE","lat":56.2961006165,"lon":12.8471002579,"tz":"Europe/Stockholm"},{"iata":"SQO","name":"Storuman Airport","city":"","state":"Vaesterbotten","country":"SE","lat":64.960899353,"lon":17.6965999603,"tz":"Europe/Stockholm"},{"iata":"HMV","name":"Hemavan Airport","city":"","state":"Vaesterbotten","country":"SE","lat":65.806098938,"lon":15.0827999115,"tz":"Europe/Stockholm"},{"iata":"RIX","name":"Riga International Airport","city":"Riga","state":"Marupe","country":"LV","lat":56.9235992432,"lon":23.9710998535,"tz":"Europe/Riga"},{"iata":"KUN","name":"Kaunas International Airport","city":"Kaunas","state":"","country":"LT","lat":54.9639015198,"lon":24.0848007202,"tz":"Europe/Vilnius"},{"iata":"PLQ","name":"Palanga International Airport","city":"Palanga","state":"","country":"LT","lat":55.9732017517,"lon":21.0939006805,"tz":"Europe/Vilnius"},{"iata":"VNO","name":"Vilnius International Airport","city":"Vilnius","state":"Vilnius","country":"LT","lat":54.6341018677,"lon":25.2858009338,"tz":"Europe/Vilnius"},{"iata":"BFN","name":"J B M Hertzog International Airport","city":"Bloemfontain","state":"Orange-Free-State","country":"ZA","lat":-29.0926990509,"lon":26.302400589,"tz":"Africa/Johannesburg"},{"iata":"CPT","name":"Cape Town International Airport","city":"Cape Town","state":"Western-Cape","country":"ZA","lat":-33.9648017883,"lon":18.6016998291,"tz":"Africa/Johannesburg"},{"iata":"ELS","name":"Ben Schoeman Airport","city":"East London","state":"Eastern-Cape","country":"ZA","lat":-33.0355987549,"lon":27.8258991241,"tz":"Africa/Johannesburg"},{"iata":"GRJ","name":"George Airport","city":"George","state":"Western-Cape","country":"ZA","lat":-34.0055999756,"lon":22.378900528,"tz":"Africa/Johannesburg"},{"iata":"MQP","name":"Kruger Mpumalanga International Airport","city":"Mpumalanga","state":"Mpumalanga","country":"ZA","lat":-25.3831996918,"lon":31.1056003571,"tz":"Africa/Johannesburg"},{"iata":"DUR","name":"King Shaka International Airport","city":"Durban","state":"KwaZulu-Natal","country":"ZA","lat":-29.6144444444,"lon":31.1197222222,"tz":"Africa/Johannesburg"},{"iata":"JNB","name":"O. R. Tambo International Airport","city":"Johannesburg","state":"Gauteng","country":"ZA","lat":-26.133333,"lon":28.25,"tz":"Africa/Johannesburg"},{"iata":"PLZ","name":"Port Elizabeth Airport","city":"Port Elizabeth","state":"Eastern-Cape","country":"ZA","lat":-33.9849014282,"lon":25.6173000336,"tz":"Africa/Johannesburg"},{"iata":"MUB","name":"Maun Airport","city":"Maun","state":"North-West","country":"BW","lat":-19.9726009369,"lon":23.4311008453,"tz":"Africa/Gaborone"},{"iata":"GBE","name":"Sir Seretse Khama International Airport","city":"Gaborone","state":"South-East","country":"BW","lat":-24.5552005768,"lon":25.9181995392,"tz":"Africa/Gaborone"},{"iata":"BZV","name":"Maya-Maya Airport","city":"Brazzaville","state":"Brazzaville","country":"CG","lat":-4.2516999245,"lon":15.2530002594,"tz":"Africa/Brazzaville"},{"iata":"PNR","name":"Pointe Noire Airport","city":"Pointe Noire","state":"Kouilou","country":"CG","lat":-4.8160300255,"lon":11.8865995407,"tz":"Africa/Brazzaville"},{"iata":"BGF","name":"Bangui M'Poko International Airport","city":"Bangui","state":"Ombella-M'Poko","country":"CF","lat":4.3984799385,"lon":18.5188007355,"tz":"Africa/Bangui"},{"iata":"BSG","name":"Bata Airport","city":"","state":"Litoral","country":"GQ","lat":1.9054700136,"lon":9.805680275,"tz":"Africa/Malabo"},{"iata":"SSG","name":"Malabo Airport","city":"Malabo","state":"","country":"GQ","lat":3.7552700043,"lon":8.7087202072,"tz":"Africa/Malabo"},{"iata":"MRU","name":"Sir Seewoosagur Ramgoolam International Airport","city":"Mauritius","state":"Grand-Port","country":"MU","lat":-20.4302005768,"lon":57.6836013794,"tz":"Indian/Mauritius"},{"iata":"DLA","name":"Douala International Airport","city":"Douala","state":"Littoral","country":"CM","lat":4.0060801506,"lon":9.7194795609,"tz":"Africa/Douala"},{"iata":"GOU","name":"Garoua International Airport","city":"Garoua","state":"North","country":"CM","lat":9.3358898163,"lon":13.3701000214,"tz":"Africa/Douala"},{"iata":"LUN","name":"Kenneth Kaunda International Airport","city":"Lusaka","state":"Lusaka","country":"ZM","lat":-15.3308000565,"lon":28.4526004791,"tz":"Africa/Lusaka"},{"iata":"NLA","name":"Ndola Airport","city":"Ndola","state":"Copperbelt","country":"ZM","lat":-12.9981002808,"lon":28.664899826,"tz":"Africa/Lusaka"},{"iata":"HAH","name":"Prince Said Ibrahim International Airport","city":"Moroni","state":"Grande-Comore","country":"KM","lat":-11.5336999893,"lon":43.271900177,"tz":"Indian/Comoro"},{"iata":"AJN","name":"Ouani Airport","city":"Ouani","state":"Anjouan","country":"KM","lat":-12.1316995621,"lon":44.4303016663,"tz":"Indian/Comoro"},{"iata":"DZA","name":"Dzaoudzi Pamandzi International Airport","city":"Dzaoudzi","state":"Pamandzi","country":"YT","lat":-12.8046998978,"lon":45.2811012268,"tz":"Indian/Mayotte"},{"iata":"RUN","name":"Roland Garros Airport","city":"St Denis","state":"Reunion","country":"RE","lat":-20.8871002197,"lon":55.5102996826,"tz":"Indian/Reunion"},{"iata":"ZSE","name":"Pierrefonds Airport","city":"St Pierre","state":"Reunion","country":"RE","lat":-21.3208999634,"lon":55.4249992371,"tz":"Indian/Reunion"},{"iata":"TNR","name":"Ivato Airport","city":"Antananarivo","state":"","country":"MG","lat":-18.7968997955,"lon":47.4788017273,"tz":"Indian/Antananarivo"},{"iata":"TMM","name":"Toamasina Airport","city":"","state":"Atsinanana","country":"MG","lat":-18.109500885,"lon":49.3925018311,"tz":"Indian/Antananarivo"},{"iata":"MOQ","name":"Morondava Airport","city":"","state":"Menabe","country":"MG","lat":-20.2847003937,"lon":44.3176002502,"tz":"Indian/Antananarivo"},{"iata":"DIE","name":"Arrachart Airport","city":"","state":"Diana","country":"MG","lat":-12.3493995667,"lon":49.2916984558,"tz":"Indian/Antananarivo"},{"iata":"ANM","name":"Antsirabato Airport","city":"","state":"Sava","country":"MG","lat":-14.9994001389,"lon":50.3202018738,"tz":"Indian/Antananarivo"},{"iata":"MJN","name":"Amborovy Airport","city":"","state":"","country":"MG","lat":-15.6668417421,"lon":46.3512325287,"tz":"Indian/Antananarivo"},{"iata":"NOS","name":"Fascene Airport","city":"Nosy Be","state":"Diana","country":"MG","lat":-13.3121004105,"lon":48.3148002625,"tz":"Indian/Antananarivo"},{"iata":"WMN","name":"Maroantsetra Airport","city":"","state":"","country":"MG","lat":-15.4366998672,"lon":49.6883010864,"tz":"Indian/Antananarivo"},{"iata":"SVB","name":"Sambava Airport","city":"","state":"","country":"MG","lat":-14.2785997391,"lon":50.1747016907,"tz":"Indian/Antananarivo"},{"iata":"FTU","name":"Tolanaro Airport","city":"Tolanaro","state":"","country":"MG","lat":-25.0380992889,"lon":46.9561004639,"tz":"Indian/Antananarivo"},{"iata":"TLE","name":"Toliara Airport","city":"","state":"","country":"MG","lat":-23.3833999634,"lon":43.7285003662,"tz":"Indian/Antananarivo"},{"iata":"SSY","name":"Mbanza Congo Airport","city":"Mbanza Congo","state":"Zaire","country":"AO","lat":-6.2698998451,"lon":14.2469997406,"tz":"Africa/Luanda"},{"iata":"CBT","name":"Catumbela Airport","city":"Catumbela","state":"Benguela","country":"AO","lat":-12.4792003632,"lon":13.4869003296,"tz":"Africa/Luanda"},{"iata":"VPE","name":"Ngjiva Pereira Airport","city":"Ngiva","state":"Cunene","country":"AO","lat":-17.0435009003,"lon":15.6837997437,"tz":"Africa/Luanda"},{"iata":"NOV","name":"Nova Lisboa Airport","city":"Huambo","state":"Huambo","country":"AO","lat":-12.8088998795,"lon":15.7604999542,"tz":"Africa/Luanda"},{"iata":"LAD","name":"Quatro De Fevereiro Airport","city":"Luanda","state":"Luanda","country":"AO","lat":-8.8583698273,"lon":13.2312002182,"tz":"Africa/Luanda"},{"iata":"SPP","name":"Menongue Airport","city":"Menongue","state":"Cuando-Cobango","country":"AO","lat":-14.6576004028,"lon":17.7198009491,"tz":"Africa/Luanda"},{"iata":"MSZ","name":"Namibe Airport","city":"Namibe","state":"Namibe","country":"AO","lat":-15.2611999512,"lon":12.1468000412,"tz":"Africa/Luanda"},{"iata":"SZA","name":"Soyo Airport","city":"Soyo","state":"Zaire","country":"AO","lat":-6.1410899162,"lon":12.3718004227,"tz":"Africa/Luanda"},{"iata":"SDD","name":"Lubango Airport","city":"Lubango","state":"Huila","country":"AO","lat":-14.9246997833,"lon":13.5749998093,"tz":"Africa/Luanda"},{"iata":"POG","name":"Port Gentil Airport","city":"Port Gentil","state":"Ogooue-Maritime","country":"GA","lat":-0.7117390037,"lon":8.7543802261,"tz":"Africa/Libreville"},{"iata":"LBV","name":"Leon M Ba Airport","city":"Libreville","state":"Estuaire","country":"GA","lat":0.4586000144,"lon":9.4122800827,"tz":"Africa/Libreville"},{"iata":"TMS","name":"Sao Tome International Airport","city":"Sao Tome","state":"Sao-Tome-Island","country":"ST","lat":0.3781749904,"lon":6.7121500969,"tz":"Africa/Sao_Tome"},{"iata":"BEW","name":"Beira Airport","city":"Beira","state":"Sofala","country":"MZ","lat":-19.7964000702,"lon":34.9076004028,"tz":"Africa/Maputo"},{"iata":"INH","name":"Inhambane Airport","city":"Inhambabe","state":"Inhambane","country":"MZ","lat":-23.8763999939,"lon":35.4085006714,"tz":"Africa/Maputo"},{"iata":"MPM","name":"Maputo Airport","city":"Maputo","state":"Maputo","country":"MZ","lat":-25.9207992554,"lon":32.5726013184,"tz":"Africa/Maputo"},{"iata":"APL","name":"Nampula Airport","city":"Nampula","state":"Nampula","country":"MZ","lat":-15.1056003571,"lon":39.2817993164,"tz":"Africa/Maputo"},{"iata":"POL","name":"Pemba Airport","city":"Pemba / Porto Amelia","state":"Cabo-Delgado","country":"MZ","lat":-12.9917621613,"lon":40.5240135193,"tz":"Africa/Maputo"},{"iata":"UEL","name":"Quelimane Airport","city":"Quelimane","state":"Zambezia","country":"MZ","lat":-17.8554992676,"lon":36.8690986633,"tz":"Africa/Maputo"},{"iata":"TET","name":"Chingozi Airport","city":"Tete","state":"Tete","country":"MZ","lat":-16.1047992706,"lon":33.6402015686,"tz":"Africa/Maputo"},{"iata":"VNX","name":"Vilankulo Airport","city":"Vilanculo","state":"Inhambane","country":"MZ","lat":-22.0184001923,"lon":35.3133010864,"tz":"Africa/Maputo"},{"iata":"SEZ","name":"Seychelles International Airport","city":"Mahe Island","state":"Pointe-Larue","country":"SC","lat":-4.6743397713,"lon":55.5218009949,"tz":"Indian/Mahe"},{"iata":"FRK","name":"Fregate Island Airport","city":"Fregate Island","state":"Inner-Islands","country":"SC","lat":-4.583,"lon":55.950001,"tz":"Indian/Mahe"},{"iata":"NDJ","name":"N'Djamena International Airport","city":"N'Djamena","state":"Chari-Baguirmi","country":"TD","lat":12.1337003708,"lon":15.0340003967,"tz":"Africa/Ndjamena"},{"iata":"BUQ","name":"Joshua Mqabuko Nkomo International Airport","city":"Bulawayo","state":"Matabeleland-North","country":"ZW","lat":-20.0174007416,"lon":28.6179008484,"tz":"Africa/Harare"},{"iata":"VFA","name":"Victoria Falls International Airport","city":"Victoria Falls","state":"","country":"ZW","lat":-18.0958995819,"lon":25.8390007019,"tz":"Africa/Harare"},{"iata":"HRE","name":"Harare International Airport","city":"Harare","state":"Harare","country":"ZW","lat":-17.9318008423,"lon":31.0928001404,"tz":"Africa/Harare"},{"iata":"BLZ","name":"Chileka International Airport","city":"Blantyre","state":"Southern-Region","country":"MW","lat":-15.6791000366,"lon":34.9739990234,"tz":"Africa/Blantyre"},{"iata":"LLW","name":"Lilongwe International Airport","city":"Lilongwe","state":"Central-Region","country":"MW","lat":-13.7894001007,"lon":33.78099823,"tz":"Africa/Blantyre"},{"iata":"WVB","name":"Walvis Bay Airport","city":"Walvis Bay","state":"Erongo","country":"NA","lat":-22.9799003601,"lon":14.6452999115,"tz":"Africa/Windhoek"},{"iata":"ERS","name":"Eros Airport","city":"Windhoek","state":"Khomas","country":"NA","lat":-22.6121997833,"lon":17.0804004669,"tz":"Africa/Windhoek"},{"iata":"WDH","name":"Hosea Kutako International Airport","city":"Windhoek","state":"Khomas","country":"NA","lat":-22.4799003601,"lon":17.4708995819,"tz":"Africa/Windhoek"},{"iata":"FIH","name":"Ndjili International Airport","city":"Kinshasa","state":"","country":"CD","lat":-4.3857498169,"lon":15.4446001053,"tz":"Africa/Kinshasa"},{"iata":"FKI","name":"Bangoka International Airport","city":"Kisangani","state":"Tshopo","country":"CD","lat":0.4816389978,"lon":25.3379993439,"tz":"Africa/Lubumbashi"},{"iata":"FBM","name":"Lubumbashi International Airport","city":"Lubumbashi","state":"","country":"CD","lat":-11.5913000107,"lon":27.5308990479,"tz":"Africa/Lubumbashi"},{"iata":"MJM","name":"Mbuji Mayi Airport","city":"Mbuji Mayi","state":"Kasai-Oriental","country":"CD","lat":-6.121240139,"lon":23.5690002441,"tz":"Africa/Lubumbashi"},{"iata":"BKO","name":"Senou Airport","city":"Senou","state":"Bamako","country":"ML","lat":12.5334997177,"lon":-7.9499402046,"tz":"Africa/Bamako"},{"iata":"BJL","name":"Banjul International Airport","city":"Banjul","state":"Western","country":"GM","lat":13.3380002975,"lon":-16.6522006989,"tz":"Africa/Banjul"},{"iata":"FUE","name":"Fuerteventura Airport","city":"Fuerteventura Island","state":"Canary-Islands","country":"ES","lat":28.4526996613,"lon":-13.8638000488,"tz":"Atlantic/Canary"},{"iata":"LPA","name":"Gran Canaria Airport","city":"Gran Canaria Island","state":"Canary-Islands","country":"ES","lat":27.9319000244,"lon":-15.3865995407,"tz":"Atlantic/Canary"},{"iata":"ACE","name":"Lanzarote Airport","city":"Lanzarote Island","state":"Canary-Islands","country":"ES","lat":28.9454994202,"lon":-13.6051998138,"tz":"Atlantic/Canary"},{"iata":"TFS","name":"Tenerife South Airport","city":"Tenerife Island","state":"Canary-Islands","country":"ES","lat":28.044500351,"lon":-16.5725002289,"tz":"Atlantic/Canary"},{"iata":"TFN","name":"Tenerife Norte Airport","city":"Tenerife Island","state":"Canary-Islands","country":"ES","lat":28.4827003479,"lon":-16.3414993286,"tz":"Atlantic/Canary"},{"iata":"MLN","name":"Melilla Airport","city":"Melilla Island","state":"Melilla","country":"ES","lat":35.279800415,"lon":-2.9562599659,"tz":"Africa/Casablanca"},{"iata":"FNA","name":"Lungi International Airport","city":"Freetown","state":"Northern-Province","country":"SL","lat":8.6164398193,"lon":-13.1955003738,"tz":"Africa/Freetown"},{"iata":"OXB","name":"Osvaldo Vieira International Airport","city":"Bissau","state":"","country":"GW","lat":11.8948001862,"lon":-15.6536998749,"tz":"Africa/Bissau"},{"iata":"ROB","name":"Roberts International Airport","city":"Monrovia","state":"Margibi","country":"LR","lat":6.2337899208,"lon":-10.3622999191,"tz":"Africa/Monrovia"},{"iata":"AGA","name":"Al Massira Airport","city":"Agadir","state":"Souss-Massa","country":"MA","lat":30.3250007629,"lon":-9.413069725,"tz":"Africa/Casablanca"},{"iata":"FEZ","name":"Saiss Airport","city":"Fes","state":"Fes-Meknes","country":"MA","lat":33.9272994995,"lon":-4.9779601097,"tz":"Africa/Casablanca"},{"iata":"OUD","name":"Angads Airport","city":"Oujda","state":"Oriental","country":"MA","lat":34.7872009277,"lon":-1.9239900112,"tz":"Africa/Casablanca"},{"iata":"RBA","name":"Rabat-Sale Airport","city":"Rabat","state":"","country":"MA","lat":34.0514984131,"lon":-6.7515201569,"tz":"Africa/Casablanca"},{"iata":"VIL","name":"Dakhla Airport","city":"Dakhla","state":"Dakhla-Oued-Ed-Dahab","country":"EH","lat":23.7182998657,"lon":-15.9320001602,"tz":"Africa/El_Aaiun"},{"iata":"ESU","name":"Mogador Airport","city":"Essaouira","state":"","country":"MA","lat":31.3974990845,"lon":-9.6816701889,"tz":"Africa/Casablanca"},{"iata":"EUN","name":"Hassan I Airport","city":"El Aaiun","state":"Laayoune-Sakia-El-Hamra","country":"EH","lat":27.1516990662,"lon":-13.2192001343,"tz":"Africa/El_Aaiun"},{"iata":"CMN","name":"Mohammed V International Airport","city":"Casablanca","state":"","country":"MA","lat":33.3675003052,"lon":-7.5899701118,"tz":"Africa/Casablanca"},{"iata":"NDR","name":"Nador International Airport","city":"Nador","state":"Oriental","country":"MA","lat":34.9888000488,"lon":-3.0282099247,"tz":"Africa/Casablanca"},{"iata":"RAK","name":"Menara Airport","city":"Marrakech","state":"Marrakesh-Safi","country":"MA","lat":31.6068992615,"lon":-8.0362997055,"tz":"Africa/Casablanca"},{"iata":"TNG","name":"Ibn Batouta Airport","city":"Tangier","state":"","country":"MA","lat":35.7268981934,"lon":-5.9168901444,"tz":"Africa/Casablanca"},{"iata":"DKR","name":"Leopold Sedar Senghor International Airport","city":"Dakar","state":"Dakar","country":"SN","lat":14.7397003174,"lon":-17.4902000427,"tz":"Africa/Dakar"},{"iata":"NKC","name":"Nouakchott International Airport","city":"Nouakchott","state":"Trarza","country":"MR","lat":18.0981998444,"lon":-15.9484996796,"tz":"Africa/Nouakchott"},{"iata":"CKY","name":"Conakry Airport","city":"Conakry","state":"Conakry","country":"GN","lat":9.57689,"lon":-13.612,"tz":"Africa/Conakry"},{"iata":"SID","name":"Amilcar Cabral International Airport","city":"Espargos","state":"Sal","country":"CV","lat":16.741399765,"lon":-22.9493999481,"tz":"Atlantic/Cape_Verde"},{"iata":"RAI","name":"Praia International Airport","city":"Praia","state":"Praia","country":"CV","lat":14.9245004654,"lon":-23.4934997559,"tz":"Atlantic/Cape_Verde"},{"iata":"SNE","name":"Preguica Airport","city":"Preguica","state":"Ribeira-Brava","country":"CV","lat":16.5883998871,"lon":-24.2847003937,"tz":"Atlantic/Cape_Verde"},{"iata":"VXE","name":"Sao Pedro Airport","city":"Sao Pedro","state":"Sao-Vicente","country":"CV","lat":16.8332004547,"lon":-25.0552997589,"tz":"Atlantic/Cape_Verde"},{"iata":"ADD","name":"Bole International Airport","city":"Addis Ababa","state":"Addis-Ababa","country":"ET","lat":8.9778900147,"lon":38.7993011475,"tz":"Africa/Addis_Ababa"},{"iata":"AXU","name":"Axum Airport","city":"","state":"Tigray","country":"ET","lat":14.1468000412,"lon":38.7728004456,"tz":"Africa/Addis_Ababa"},{"iata":"BJR","name":"Bahir Dar Airport","city":"Bahir Dar","state":"Amhara","country":"ET","lat":11.6080999374,"lon":37.3216018677,"tz":"Africa/Addis_Ababa"},{"iata":"DIR","name":"Aba Tenna Dejazmach Yilma International Airport","city":"Dire Dawa","state":"Dire-Dawa","country":"ET","lat":9.6246995926,"lon":41.8541984558,"tz":"Africa/Addis_Ababa"},{"iata":"GDQ","name":"Gonder Airport","city":"Gondar","state":"Amhara","country":"ET","lat":12.519900322,"lon":37.4339981079,"tz":"Africa/Addis_Ababa"},{"iata":"LLI","name":"Lalibella Airport","city":"Lalibela","state":"Amhara","country":"ET","lat":11.9750003815,"lon":38.9799995422,"tz":"Africa/Addis_Ababa"},{"iata":"BJM","name":"Bujumbura International Airport","city":"Bujumbura","state":"Bujumbura-Mairie","country":"BI","lat":-3.3240199089,"lon":29.3185005188,"tz":"Africa/Bujumbura"},{"iata":"BSA","name":"Bosaso Airport","city":"Bosaso","state":"Bari","country":"SO","lat":11.2753000259,"lon":49.1493988037,"tz":"Africa/Mogadishu"},{"iata":"HGA","name":"Egal International Airport","city":"Hargeisa","state":"Woqooyi-Galbeed","country":"SO","lat":9.5181703568,"lon":44.0887985229,"tz":"Africa/Mogadishu"},{"iata":"BBO","name":"Berbera Airport","city":"Berbera","state":"Woqooyi-Galbeed","country":"SO","lat":10.3892002106,"lon":44.9411010742,"tz":"Africa/Mogadishu"},{"iata":"MGQ","name":"Aden Adde International Airport","city":"Mogadishu","state":"Banaadir","country":"SO","lat":2.0144400597,"lon":45.3046989441,"tz":"Africa/Mogadishu"},{"iata":"BUO","name":"Burao Airport","city":"Burao","state":"Togdheer","country":"SO","lat":9.5275,"lon":45.5549,"tz":"Africa/Mogadishu"},{"iata":"ATZ","name":"Assiut International Airport","city":"Assiut","state":"Asyut","country":"EG","lat":27.0464992523,"lon":31.0119991302,"tz":"Africa/Cairo"},{"iata":"ALY","name":"El Nouzha Airport","city":"Alexandria","state":"","country":"EG","lat":31.1839008331,"lon":29.9489002228,"tz":"Africa/Cairo"},{"iata":"HBE","name":"Borg El Arab International Airport","city":"Alexandria","state":"Alexandria","country":"EG","lat":30.9176998138,"lon":29.6963996887,"tz":"Africa/Cairo"},{"iata":"CAI","name":"Cairo International Airport","city":"Cairo","state":"Cairo","country":"EG","lat":30.1219005585,"lon":31.4055995941,"tz":"Africa/Cairo"},{"iata":"HRG","name":"Hurghada International Airport","city":"Hurghada","state":"Red-Sea","country":"EG","lat":27.1783008575,"lon":33.7994003296,"tz":"Africa/Cairo"},{"iata":"LXR","name":"Luxor International Airport","city":"Luxor","state":"Qena","country":"EG","lat":25.670999527,"lon":32.7066001892,"tz":"Africa/Cairo"},{"iata":"RMF","name":"Marsa Alam International Airport","city":"Marsa Alam","state":"Red-Sea","country":"EG","lat":25.557100296,"lon":34.5836982727,"tz":"Africa/Cairo"},{"iata":"MUH","name":"Mersa Matruh Airport","city":"Mersa Matruh","state":"Matruh","country":"EG","lat":31.3253993988,"lon":27.2217006683,"tz":"Africa/Cairo"},{"iata":"SSH","name":"Sharm El Sheikh International Airport","city":"Sharm el-Sheikh","state":"South-Sinai","country":"EG","lat":27.9773006439,"lon":34.3950004578,"tz":"Africa/Cairo"},{"iata":"ASW","name":"Aswan International Airport","city":"Aswan","state":"Aswan","country":"EG","lat":23.9643993378,"lon":32.8199996948,"tz":"Africa/Cairo"},{"iata":"ASM","name":"Asmara International Airport","city":"Asmara","state":"Maekel","country":"ER","lat":15.2918996811,"lon":38.9107017517,"tz":"Africa/Asmara"},{"iata":"NBO","name":"Jomo Kenyatta International Airport","city":"Nairobi","state":"Nairobi-Area","country":"KE","lat":-1.319239974,"lon":36.9277992249,"tz":"Africa/Nairobi"},{"iata":"MYD","name":"Malindi Airport","city":"Malindi","state":"Kilifi","country":"KE","lat":-3.2293100357,"lon":40.1016998291,"tz":"Africa/Nairobi"},{"iata":"MBA","name":"Mombasa Moi International Airport","city":"Mombasa","state":"Mombasa","country":"KE","lat":-4.0348300934,"lon":39.5942001343,"tz":"Africa/Nairobi"},{"iata":"MRE","name":"Mara Serena Lodge Airstrip","city":"Masai Mara","state":"Narok","country":"KE","lat":-1.406111002,"lon":35.0080566406,"tz":"Africa/Nairobi"},{"iata":"WIL","name":"Nairobi Wilson Airport","city":"Nairobi","state":"Nairobi-Area","country":"KE","lat":-1.3217200041,"lon":36.8148002625,"tz":"Africa/Nairobi"},{"iata":"BEN","name":"Benina International Airport","city":"Benghazi","state":"Banghazi","country":"LY","lat":32.0968017578,"lon":20.2695007324,"tz":"Africa/Tripoli"},{"iata":"SEB","name":"Sabha Airport","city":"Sabha","state":"","country":"LY","lat":26.9869995117,"lon":14.4724998474,"tz":"Africa/Tripoli"},{"iata":"TIP","name":"Tripoli International Airport","city":"Tripoli","state":"","country":"LY","lat":32.6635017395,"lon":13.1590003967,"tz":"Africa/Tripoli"},{"iata":"KGL","name":"Kigali International Airport","city":"Kigali","state":"Kigali","country":"RW","lat":-1.9686299563,"lon":30.1394996643,"tz":"Africa/Kigali"},{"iata":"UYL","name":"Nyala Airport","city":"Nyala","state":"Southern-Darfur","country":"SD","lat":12.0535001755,"lon":24.956199646,"tz":"Africa/Khartoum"},{"iata":"PZU","name":"Port Sudan New International Airport","city":"Port Sudan","state":"Red-Sea","country":"SD","lat":19.433599472,"lon":37.2341003418,"tz":"Africa/Khartoum"},{"iata":"JUB","name":"Juba Airport","city":"Juba","state":"","country":"SS","lat":4.872010231,"lon":31.6011009216,"tz":"Africa/Juba"},{"iata":"KRT","name":"Khartoum International Airport","city":"Khartoum","state":"Khartoum","country":"SD","lat":15.5895004272,"lon":32.5531997681,"tz":"Africa/Khartoum"},{"iata":"DAR","name":"Mwalimu Julius K. Nyerere International Airport","city":"Dar es Salaam","state":"Dar-es-Salaam","country":"TZ","lat":-6.8781099319,"lon":39.2025985718,"tz":"Africa/Dar_es_Salaam"},{"iata":"JRO","name":"Kilimanjaro International Airport","city":"Arusha","state":"Kilimanjaro","country":"TZ","lat":-3.4294099808,"lon":37.0745010376,"tz":"Africa/Dar_es_Salaam"},{"iata":"MWZ","name":"Mwanza Airport","city":"Mwanza","state":"Mwanza","country":"TZ","lat":-2.4444899559,"lon":32.9327011108,"tz":"Africa/Dar_es_Salaam"},{"iata":"ZNZ","name":"Zanzibar Airport","city":"Kiembi Samaki","state":"Zanzibar-Urban/West","country":"TZ","lat":-6.2220201492,"lon":39.224899292,"tz":"Africa/Dar_es_Salaam"},{"iata":"EBB","name":"Entebbe International Airport","city":"Kampala","state":"Central-Region","country":"UG","lat":0.0423859991,"lon":32.4435005188,"tz":"Africa/Kampala"},{"iata":"ABE","name":"Lehigh Valley International Airport","city":"Allentown","state":"Pennsylvania","country":"US","lat":40.6520996094,"lon":-75.4408035278,"tz":"America/New_York"},{"iata":"ABQ","name":"Albuquerque International Sunport Airport","city":"Albuquerque","state":"New-Mexico","country":"US","lat":35.0401992798,"lon":-106.6090011597,"tz":"America/Denver"},{"iata":"ABR","name":"Aberdeen Regional Airport","city":"Aberdeen","state":"South-Dakota","country":"US","lat":45.4491004944,"lon":-98.4217987061,"tz":"America/Chicago"},{"iata":"ACK","name":"Nantucket Memorial Airport","city":"Nantucket","state":"Massachusetts","country":"US","lat":41.25310135,"lon":-70.06020355,"tz":"America/New_York"},{"iata":"ACV","name":"Arcata Airport","city":"Arcata/Eureka","state":"California","country":"US","lat":40.978099823,"lon":-124.1090011597,"tz":"America/Los_Angeles"},{"iata":"ACY","name":"Atlantic City International Airport","city":"Atlantic City","state":"New-Jersey","country":"US","lat":39.4575996399,"lon":-74.5772018433,"tz":"America/New_York"},{"iata":"AEX","name":"Alexandria International Airport","city":"Alexandria","state":"Louisiana","country":"US","lat":31.3274002075,"lon":-92.5497970581,"tz":"America/Chicago"},{"iata":"AIA","name":"Alliance Municipal Airport","city":"Alliance","state":"Nebraska","country":"US","lat":42.0531997681,"lon":-102.804000854,"tz":"America/Denver"},{"iata":"ALB","name":"Albany International Airport","city":"Albany","state":"New-York","country":"US","lat":42.748298645,"lon":-73.8016967773,"tz":"America/New_York"},{"iata":"AMA","name":"Rick Husband Amarillo International Airport","city":"Amarillo","state":"Texas","country":"US","lat":35.2193984985,"lon":-101.7060012817,"tz":"America/Chicago"},{"iata":"ASE","name":"Aspen-Pitkin Co/Sardy Field","city":"Aspen","state":"Colorado","country":"US","lat":39.22320175,"lon":-106.8690033,"tz":"America/Denver"},{"iata":"ATL","name":"Hartsfield Jackson Atlanta International Airport","city":"Atlanta","state":"Georgia","country":"US","lat":33.6366996765,"lon":-84.4281005859,"tz":"America/New_York"},{"iata":"ATW","name":"Outagamie County Regional Airport","city":"Appleton","state":"Wisconsin","country":"US","lat":44.2580986023,"lon":-88.5190963745,"tz":"America/Chicago"},{"iata":"ATY","name":"Watertown Regional Airport","city":"Watertown","state":"South-Dakota","country":"US","lat":44.91400146,"lon":-97.15470123,"tz":"America/Chicago"},{"iata":"AUG","name":"Augusta State Airport","city":"Augusta","state":"Maine","country":"US","lat":44.3205986023,"lon":-69.7973022461,"tz":"America/New_York"},{"iata":"AUS","name":"Austin Bergstrom International Airport","city":"Austin","state":"Texas","country":"US","lat":30.1944999695,"lon":-97.6698989868,"tz":"America/Chicago"},{"iata":"AVL","name":"Asheville Regional Airport","city":"Asheville","state":"North-Carolina","country":"US","lat":35.4361991882,"lon":-82.5418014526,"tz":"America/New_York"},{"iata":"AVP","name":"Wilkes Barre Scranton International Airport","city":"Wilkes-Barre/Scranton","state":"Pennsylvania","country":"US","lat":41.3385009766,"lon":-75.7233963013,"tz":"America/New_York"},{"iata":"AZO","name":"Kalamazoo Battle Creek International Airport","city":"Kalamazoo","state":"Michigan","country":"US","lat":42.2349014282,"lon":-85.5521011353,"tz":"America/Detroit"},{"iata":"BDL","name":"Bradley International Airport","city":"Hartford","state":"Connecticut","country":"US","lat":41.9388999939,"lon":-72.6831970215,"tz":"America/New_York"},{"iata":"BFD","name":"Bradford Regional Airport","city":"Bradford","state":"Pennsylvania","country":"US","lat":41.8031005859,"lon":-78.6400985718,"tz":"America/New_York"},{"iata":"BFI","name":"Boeing Field King County International Airport","city":"Seattle","state":"Washington","country":"US","lat":47.5299987793,"lon":-122.3020019531,"tz":"America/Los_Angeles"},{"iata":"BFL","name":"Meadows Field","city":"Bakersfield","state":"California","country":"US","lat":35.43360138,"lon":-119.0569992,"tz":"America/Los_Angeles"},{"iata":"BGM","name":"Greater Binghamton/Edwin A Link field","city":"Binghamton","state":"New-York","country":"US","lat":42.20869827,"lon":-75.97979736,"tz":"America/New_York"},{"iata":"BGR","name":"Bangor International Airport","city":"Bangor","state":"Maine","country":"US","lat":44.8073997498,"lon":-68.8281021118,"tz":"America/New_York"},{"iata":"BHM","name":"Birmingham-Shuttlesworth International Airport","city":"Birmingham","state":"Alabama","country":"US","lat":33.56290054,"lon":-86.75350189,"tz":"America/Chicago"},{"iata":"BIL","name":"Billings Logan International Airport","city":"Billings","state":"Montana","country":"US","lat":45.8077011108,"lon":-108.5429992676,"tz":"America/Denver"},{"iata":"BIS","name":"Bismarck Municipal Airport","city":"Bismarck","state":"North-Dakota","country":"US","lat":46.7727012634,"lon":-100.7460021973,"tz":"America/Chicago"},{"iata":"BLI","name":"Bellingham International Airport","city":"Bellingham","state":"Washington","country":"US","lat":48.7928009033,"lon":-122.5380020142,"tz":"America/Los_Angeles"},{"iata":"BMI","name":"Central Illinois Regional Airport at Bloomington-Normal","city":"Bloomington-Normal","state":"Illinois","country":"US","lat":40.47710037,"lon":-88.91590118,"tz":"America/Chicago"},{"iata":"BNA","name":"Nashville International Airport","city":"Nashville","state":"Tennessee","country":"US","lat":36.1245002747,"lon":-86.6781997681,"tz":"America/Chicago"},{"iata":"BOI","name":"Boise Air Terminal/Gowen field","city":"Boise","state":"Idaho","country":"US","lat":43.56439972,"lon":-116.2229996,"tz":"America/Boise"},{"iata":"BOS","name":"General Edward Lawrence Logan International Airport","city":"Boston","state":"Massachusetts","country":"US","lat":42.36429977,"lon":-71.00520325,"tz":"America/New_York"},{"iata":"BRO","name":"Brownsville South Padre Island International Airport","city":"Brownsville","state":"Texas","country":"US","lat":25.9067993164,"lon":-97.4259033203,"tz":"America/Chicago"},{"iata":"BTM","name":"Bert Mooney Airport","city":"Butte","state":"Montana","country":"US","lat":45.9547996521,"lon":-112.4970016479,"tz":"America/Denver"},{"iata":"BTR","name":"Baton Rouge Metropolitan Ryan Field","city":"Baton Rouge","state":"Louisiana","country":"US","lat":30.53319931,"lon":-91.14959717,"tz":"America/Chicago"},{"iata":"BTV","name":"Burlington International Airport","city":"Burlington","state":"Vermont","country":"US","lat":44.4719009399,"lon":-73.1532974243,"tz":"America/New_York"},{"iata":"BUF","name":"Buffalo Niagara International Airport","city":"Buffalo","state":"New-York","country":"US","lat":42.94049835,"lon":-78.73220062,"tz":"America/New_York"},{"iata":"BUR","name":"Bob Hope Airport","city":"Burbank","state":"California","country":"US","lat":34.2006988525,"lon":-118.3590011597,"tz":"America/Los_Angeles"},{"iata":"BWI","name":"Baltimore/Washington International Thurgood Marshal Airport","city":"Baltimore","state":"Maryland","country":"US","lat":39.17539978,"lon":-76.66829681,"tz":"America/New_York"},{"iata":"BZN","name":"Gallatin Field","city":"Bozeman","state":"Montana","country":"US","lat":45.77750015,"lon":-111.1529999,"tz":"America/Denver"},{"iata":"CAE","name":"Columbia Metropolitan Airport","city":"Columbia","state":"South-Carolina","country":"US","lat":33.9388008118,"lon":-81.1194992065,"tz":"America/New_York"},{"iata":"CAK","name":"Akron Canton Regional Airport","city":"Akron","state":"Ohio","country":"US","lat":40.9160995483,"lon":-81.442199707,"tz":"America/New_York"},{"iata":"CDR","name":"Chadron Municipal Airport","city":"Chadron","state":"Nebraska","country":"US","lat":42.837600708,"lon":-103.095001221,"tz":"America/Denver"},{"iata":"CHA","name":"Lovell Field","city":"Chattanooga","state":"Tennessee","country":"US","lat":35.0353012085,"lon":-85.2037963867,"tz":"America/New_York"},{"iata":"CHO","name":"Charlottesville Albemarle Airport","city":"Charlottesville","state":"Virginia","country":"US","lat":38.1385993958,"lon":-78.4529037476,"tz":"America/New_York"},{"iata":"CKB","name":"North Central West Virginia Airport","city":"Clarksburg","state":"West-Virginia","country":"US","lat":39.2966003418,"lon":-80.2281036377,"tz":"America/New_York"},{"iata":"CLE","name":"Cleveland Hopkins International Airport","city":"Cleveland","state":"Ohio","country":"US","lat":41.4117012024,"lon":-81.8498001099,"tz":"America/New_York"},{"iata":"CLT","name":"Charlotte Douglas International Airport","city":"Charlotte","state":"North-Carolina","country":"US","lat":35.2140007019,"lon":-80.9430999756,"tz":"America/New_York"},{"iata":"CMH","name":"Port Columbus International Airport","city":"Columbus","state":"Ohio","country":"US","lat":39.9980010986,"lon":-82.8918991089,"tz":"America/New_York"},{"iata":"CMI","name":"University of Illinois Willard Airport","city":"Champaign/Urbana","state":"Illinois","country":"US","lat":40.03919983,"lon":-88.27809906,"tz":"America/Chicago"},{"iata":"COS","name":"City of Colorado Springs Municipal Airport","city":"Colorado Springs","state":"Colorado","country":"US","lat":38.8058013916,"lon":-104.7009963989,"tz":"America/Denver"},{"iata":"COU","name":"Columbia Regional Airport","city":"Columbia","state":"Missouri","country":"US","lat":38.8180999756,"lon":-92.2195968628,"tz":"America/Chicago"},{"iata":"CPR","name":"Casper-Natrona County International Airport","city":"Casper","state":"Wyoming","country":"US","lat":42.90800095,"lon":-106.4639969,"tz":"America/Denver"},{"iata":"CRP","name":"Corpus Christi International Airport","city":"Corpus Christi","state":"Texas","country":"US","lat":27.7703990936,"lon":-97.5011978149,"tz":"America/Chicago"},{"iata":"CRW","name":"Yeager Airport","city":"Charleston","state":"West-Virginia","country":"US","lat":38.3731002808,"lon":-81.5932006836,"tz":"America/New_York"},{"iata":"CVG","name":"Cincinnati Northern Kentucky International Airport","city":"Hebron","state":"Kentucky","country":"US","lat":39.0488014221,"lon":-84.6678009033,"tz":"America/New_York"},{"iata":"CWA","name":"Central Wisconsin Airport","city":"Mosinee","state":"Wisconsin","country":"US","lat":44.7775993347,"lon":-89.6668014526,"tz":"America/Chicago"},{"iata":"DAB","name":"Daytona Beach International Airport","city":"Daytona Beach","state":"Florida","country":"US","lat":29.1798992157,"lon":-81.0580978394,"tz":"America/New_York"},{"iata":"DAL","name":"Dallas Love Field","city":"Dallas","state":"Texas","country":"US","lat":32.8470993042,"lon":-96.8517990112,"tz":"America/Chicago"},{"iata":"DAY","name":"James M Cox Dayton International Airport","city":"Dayton","state":"Ohio","country":"US","lat":39.9024009705,"lon":-84.2193984985,"tz":"America/New_York"},{"iata":"DEN","name":"Denver International Airport","city":"Denver","state":"Colorado","country":"US","lat":39.8616981506,"lon":-104.672996521,"tz":"America/Denver"},{"iata":"DFW","name":"Dallas Fort Worth International Airport","city":"Dallas-Fort Worth","state":"Texas","country":"US","lat":32.8968009949,"lon":-97.0380020142,"tz":"America/Chicago"},{"iata":"DLH","name":"Duluth International Airport","city":"Duluth","state":"Minnesota","country":"US","lat":46.8420982361,"lon":-92.1936035156,"tz":"America/Chicago"},{"iata":"DRO","name":"Durango La Plata County Airport","city":"Durango","state":"Colorado","country":"US","lat":37.1515007019,"lon":-107.753997803,"tz":"America/Denver"},{"iata":"DSM","name":"Des Moines International Airport","city":"Des Moines","state":"Iowa","country":"US","lat":41.5340003967,"lon":-93.6631011963,"tz":"America/Chicago"},{"iata":"DTW","name":"Detroit Metropolitan Wayne County Airport","city":"Detroit","state":"Michigan","country":"US","lat":42.2123985291,"lon":-83.3534011841,"tz":"America/Detroit"},{"iata":"EAU","name":"Chippewa Valley Regional Airport","city":"Eau Claire","state":"Wisconsin","country":"US","lat":44.8657989502,"lon":-91.4842987061,"tz":"America/Chicago"},{"iata":"EGE","name":"Eagle County Regional Airport","city":"Eagle","state":"Colorado","country":"US","lat":39.64260101,"lon":-106.9179993,"tz":"America/Denver"},{"iata":"ELM","name":"Elmira Corning Regional Airport","city":"Elmira/Corning","state":"New-York","country":"US","lat":42.1599006653,"lon":-76.8916015625,"tz":"America/New_York"},